{
"type": "FeatureCollection",
"features": [
{ "type": "Feature", "properties": { "name": "Cookshop", "class": "restaurant", "icon": "dog" }, "geometry": { "type": "Point", "coordinates": [ -74.0056084, 40.7454251 ] } },
{ "type": "Feature", "properties": { "name": "La Contenta", "class": "restaurant", "icon": "dog" }, "geometry": { "type": "Point", "coordinates": [ -73.98691, 40.71873 ] } },
{ "type": "Feature", "properties": { "name": "Hole in the Wall", "class": "restaurant", "icon": "dog" }, "geometry": { "type": "Point", "coordinates": [ -73.97194, 40.74446 ] } },
{ "type": "Feature", "properties": { "name": "The Grey Dog", "class": "restaurant", "icon": "dog" }, "geometry": { "type": "Point", "coordinates": [ -74.000648, 40.740624 ] } },
{ "type": "Feature", "properties": { "name": "Adalya", "class": "restaurant", "icon": "dog" }, "geometry": { "type": "Point", "coordinates": [ -73.987408502502504, 40.736209470121295 ] } },
{ "type": "Feature", "properties": { "name": "Merchants River House", "class": "restaurant", "icon": "dog" }, "geometry": { "type": "Point", "coordinates": [ -74.017617585458396, 40.7112882252543 ] } },
{ "type": "Feature", "properties": { "name": "The Shadmoor", "class": "restaurant", "icon": "dog" }, "geometry": { "type": "Point", "coordinates": [ -73.965549900000013, 40.75866 ] } },
{ "type": "Feature", "properties": { "name": "Devon", "class": "restaurant", "icon": "dog" }, "geometry": { "type": "Point", "coordinates": [ -73.98986, 40.71809 ] } },
{ "type": "Feature", "properties": { "name": "Dog And Bone", "class": "restaurant", "icon": "dog" }, "geometry": { "type": "Point", "coordinates": [ -73.982527199999979, 40.7400572 ] } },
{ "type": "Feature", "properties": { "name": "THEP Thai Restaurant", "class": "restaurant", "icon": "dog" }, "geometry": { "type": "Point", "coordinates": [ -73.95727, 40.77078 ] } },
{ "type": "Feature", "properties": { "name": "Pinky's Space", "class": "restaurant", "icon": "dog" }, "geometry": { "type": "Point", "coordinates": [ -73.98879, 40.72355 ] } },
{ "type": "Feature", "properties": { "name": "Ella Kitchen & Bar", "class": "restaurant", "icon": "dog" }, "geometry": { "type": "Point", "coordinates": [ -73.978891394827912, 40.777049646702103 ] } },
{ "type": "Feature", "properties": { "name": "La Vela Dining & Bar", "class": "restaurant", "icon": "dog" }, "geometry": { "type": "Point", "coordinates": [ -73.997872, 40.761082 ] } },
{ "type": "Feature", "properties": { "name": "Cafe Clover", "class": "restaurant", "icon": "dog" }, "geometry": { "type": "Point", "coordinates": [ -74.0027698391672, 40.729531388145901 ] } },
{ "type": "Feature", "properties": { "name": "The Marshal", "class": "restaurant", "icon": "dog" }, "geometry": { "type": "Point", "coordinates": [ -73.99396, 40.76122 ] } },
{ "type": "Feature", "properties": { "name": "Anable Basin Sailing Bar & Grill", "class": "restaurant", "icon": "dog" }, "geometry": { "type": "Point", "coordinates": [ -73.9550896, 40.749385 ] } },
{ "type": "Feature", "properties": { "name": "City Vineyard", "class": "restaurant", "icon": "dog" }, "geometry": { "type": "Point", "coordinates": [ -74.0118093, 40.7205582 ] } },
{ "type": "Feature", "properties": { "name": "Bar Bruno", "class": "restaurant", "icon": "dog" }, "geometry": { "type": "Point", "coordinates": [ -73.999795900000024, 40.6833674 ] } },
{ "type": "Feature", "properties": { "name": "Corgi Jianbing 可吉煎饼", "class": "restaurant", "icon": "dog" }, "geometry": { "type": "Point", "coordinates": [ -73.943301799999986, 40.7474918 ] } },
{ "type": "Feature", "properties": { "name": "Jajaja", "class": "restaurant", "icon": "dog" }, "geometry": { "type": "Point", "coordinates": [ -74.00455, 40.72979 ] } },
{ "type": "Feature", "properties": { "name": "Jacob's Pickles", "class": "restaurant", "icon": "dog" }, "geometry": { "type": "Point", "coordinates": [ -73.975528478622408, 40.786650441199399 ] } },
{ "type": "Feature", "properties": { "name": "Very Fresh Noodles", "class": "restaurant", "icon": "dog" }, "geometry": { "type": "Point", "coordinates": [ -74.00625, 40.742338700848606 ] } },
{ "type": "Feature", "properties": { "name": "Barking Dog", "class": "restaurant", "icon": "dog" }, "geometry": { "type": "Point", "coordinates": [ -73.95052, 40.78412 ] } },
{ "type": "Feature", "properties": { "name": "Joey Bats Café", "class": "restaurant", "icon": "dog" }, "geometry": { "type": "Point", "coordinates": [ -73.99037, 40.72006 ] } },
{ "type": "Feature", "properties": { "name": "Harlem Public", "class": "restaurant", "icon": "dog" }, "geometry": { "type": "Point", "coordinates": [ -73.948441225442409, 40.828717774457004 ] } },
{ "type": "Feature", "properties": { "name": "Kabisera", "class": "restaurant", "icon": "dog" }, "geometry": { "type": "Point", "coordinates": [ -73.98981, 40.72088 ] } },
{ "type": "Feature", "properties": { "name": "Juanchi's Burger", "class": "restaurant", "icon": "dog" }, "geometry": { "type": "Point", "coordinates": [ -73.958863, 40.713003 ] } },
{ "type": "Feature", "properties": { "name": "Pierre Loti Midtown", "class": "restaurant", "icon": "dog" }, "geometry": { "type": "Point", "coordinates": [ -73.967355055006905, 40.755871745669495 ] } },
{ "type": "Feature", "properties": { "name": "Gansevoort Market", "class": "restaurant", "icon": "dog" }, "geometry": { "type": "Point", "coordinates": [ -74.004641299999975, 40.7410154 ] } },
{ "type": "Feature", "properties": { "name": "San Blas", "class": "restaurant", "icon": "dog" }, "geometry": { "type": "Point", "coordinates": [ -73.99371, 40.69452 ] } },
{ "type": "Feature", "properties": { "name": "Excell Kingston Eatery", "class": "restaurant", "icon": "dog" }, "geometry": { "type": "Point", "coordinates": [ -74.00021, 40.75648 ] } },
{ "type": "Feature", "properties": { "name": "Between the Bread", "class": "restaurant", "icon": "dog" }, "geometry": { "type": "Point", "coordinates": [ -74.005477964648293, 40.751586615480299 ] } },
{ "type": "Feature", "properties": { "name": "Cafe Bark", "class": "restaurant", "icon": "dog" }, "geometry": { "type": "Point", "coordinates": [ -73.939838401525293, 40.851355075718295 ] } },
{ "type": "Feature", "properties": { "name": "Sunflower Cafe", "class": "restaurant", "icon": "dog" }, "geometry": { "type": "Point", "coordinates": [ -73.98219, 40.7399 ] } },
{ "type": "Feature", "properties": { "name": "Williamsburg Smorgasburg - Saturday", "class": "restaurant", "icon": "dog" }, "geometry": { "type": "Point", "coordinates": [ -73.962177, 40.721021 ] } },
{ "type": "Feature", "properties": { "name": "Chow House", "class": "restaurant", "icon": "dog" }, "geometry": { "type": "Point", "coordinates": [ -74.00072, 40.72915 ] } },
{ "type": "Feature", "properties": { "name": "GRECA", "class": "restaurant", "icon": "dog" }, "geometry": { "type": "Point", "coordinates": [ -74.010406, 40.7239479 ] } },
{ "type": "Feature", "properties": { "name": "Eatwell", "class": "restaurant", "icon": "dog" }, "geometry": { "type": "Point", "coordinates": [ -74.004713599999974, 40.7408261 ] } },
{ "type": "Feature", "properties": { "name": "Habana Outpost", "class": "restaurant", "icon": "dog" }, "geometry": { "type": "Point", "coordinates": [ -73.97416, 40.68645 ] } },
{ "type": "Feature", "properties": { "name": "Good Thanks NYC", "class": "restaurant", "icon": "dog" }, "geometry": { "type": "Point", "coordinates": [ -73.98952, 40.71972 ] } },
{ "type": "Feature", "properties": { "name": "Omar's", "class": "restaurant", "icon": "dog" }, "geometry": { "type": "Point", "coordinates": [ -73.949142575412509, 40.785173688316796 ] } },
{ "type": "Feature", "properties": { "name": "Pig Beach", "class": "restaurant", "icon": "dog" }, "geometry": { "type": "Point", "coordinates": [ -73.988026425579406, 40.679294147987498 ] } },
{ "type": "Feature", "properties": { "name": "GST Greenwich Sports Tavern Village", "class": "restaurant", "icon": "dog" }, "geometry": { "type": "Point", "coordinates": [ -74.0048, 40.72975 ] } },
{ "type": "Feature", "properties": { "name": "Greenwich Street Tavern", "class": "restaurant", "icon": "dog" }, "geometry": { "type": "Point", "coordinates": [ -74.009688799999978, 40.720839 ] } },
{ "type": "Feature", "properties": { "name": "MOMO CURRY", "class": "restaurant", "icon": "dog" }, "geometry": { "type": "Point", "coordinates": [ -74.004713599999974, 40.7408261 ] } },
{ "type": "Feature", "properties": { "name": "Rosie's", "class": "restaurant", "icon": "dog" }, "geometry": { "type": "Point", "coordinates": [ -73.99079, 40.72492 ] } },
{ "type": "Feature", "properties": { "name": "Don Ceviche", "class": "restaurant", "icon": "dog" }, "geometry": { "type": "Point", "coordinates": [ -73.988123, 40.718295 ] } },
{ "type": "Feature", "properties": { "name": "Adventure Cafe", "class": "restaurant", "icon": "dog" }, "geometry": { "type": "Point", "coordinates": [ -73.989615775644793, 40.718733065108708 ] } },
{ "type": "Feature", "properties": { "name": "Kona Coffee and Company", "class": "restaurant", "icon": "dog" }, "geometry": { "type": "Point", "coordinates": [ -73.98988, 40.72587 ] } },
{ "type": "Feature", "properties": { "name": "Irving Farm New York", "class": "restaurant", "icon": "dog" }, "geometry": { "type": "Point", "coordinates": [ -73.97952, 40.78334 ] } },
{ "type": "Feature", "properties": { "name": "Round The Clock Deli", "class": "restaurant", "icon": "dog" }, "geometry": { "type": "Point", "coordinates": [ -73.9779, 40.74634 ] } },
{ "type": "Feature", "properties": { "name": "Trestle", "class": "restaurant", "icon": "dog" }, "geometry": { "type": "Point", "coordinates": [ -73.9229562, 40.7606154 ] } },
{ "type": "Feature", "properties": { "name": "Perrine", "class": "restaurant", "icon": "dog" }, "geometry": { "type": "Point", "coordinates": [ -73.9719824881672, 40.765252315291498 ] } },
{ "type": "Feature", "properties": { "name": "Clinton Hall", "class": "restaurant", "icon": "dog" }, "geometry": { "type": "Point", "coordinates": [ -74.014869, 40.70803 ] } },
{ "type": "Feature", "properties": { "name": "Areppas Soho", "class": "restaurant", "icon": "dog" }, "geometry": { "type": "Point", "coordinates": [ -73.99713, 40.72185 ] } },
{ "type": "Feature", "properties": { "name": "Old Fashioned Pizza", "class": "restaurant", "icon": "dog" }, "geometry": { "type": "Point", "coordinates": [ -73.98607, 40.73182 ] } },
{ "type": "Feature", "properties": { "name": "Lamano West Village", "class": "restaurant", "icon": "dog" }, "geometry": { "type": "Point", "coordinates": [ -74.00158, 40.73388 ] } },
{ "type": "Feature", "properties": { "name": "Sunshine", "class": "restaurant", "icon": "dog" }, "geometry": { "type": "Point", "coordinates": [ -73.963164400000025, 40.6746035 ] } },
{ "type": "Feature", "properties": { "name": "Divine", "class": "restaurant", "icon": "dog" }, "geometry": { "type": "Point", "coordinates": [ -73.93715, 40.69777 ] } },
{ "type": "Feature", "properties": { "name": "Color Matrix Cafesalon", "class": "restaurant", "icon": "dog" }, "geometry": { "type": "Point", "coordinates": [ -73.99202, 40.71739 ] } },
{ "type": "Feature", "properties": { "name": "American Grill NYC", "class": "restaurant", "icon": "dog" }, "geometry": { "type": "Point", "coordinates": [ -73.9142775, 40.8188876 ] } },
{ "type": "Feature", "properties": { "name": "Hutch & Waldo", "class": "restaurant", "icon": "dog" }, "geometry": { "type": "Point", "coordinates": [ -73.95428, 40.77485 ] } },
{ "type": "Feature", "properties": { "name": "The Butcher's Daughter", "class": "restaurant", "icon": "dog" }, "geometry": { "type": "Point", "coordinates": [ -73.994845127647409, 40.720706862741999 ] } },
{ "type": "Feature", "properties": { "name": "Charley St", "class": "restaurant", "icon": "dog" }, "geometry": { "type": "Point", "coordinates": [ -73.99548, 40.72093 ] } },
{ "type": "Feature", "properties": { "name": "Public Records", "class": "restaurant", "icon": "dog" }, "geometry": { "type": "Point", "coordinates": [ -73.986539662892, 40.682160939250295 ] } },
{ "type": "Feature", "properties": { "name": "Industry Kitchen", "class": "restaurant", "icon": "dog" }, "geometry": { "type": "Point", "coordinates": [ -74.004882574081407, 40.704943474087294 ] } },
{ "type": "Feature", "properties": { "name": "Pier i Cafe", "class": "restaurant", "icon": "dog" }, "geometry": { "type": "Point", "coordinates": [ -73.988689, 40.779853 ] } },
{ "type": "Feature", "properties": { "name": "Song E Napule", "class": "restaurant", "icon": "dog" }, "geometry": { "type": "Point", "coordinates": [ -74.00188, 40.72813 ] } },
{ "type": "Feature", "properties": { "name": "King David Tacos", "class": "restaurant", "icon": "dog" }, "geometry": { "type": "Point", "coordinates": [ -74.01043, 40.703458 ] } },
{ "type": "Feature", "properties": { "name": "Captain's Cafe Bar & Grill", "class": "restaurant", "icon": "dog" }, "geometry": { "type": "Point", "coordinates": [ -73.984129900000013, 40.74727 ] } },
{ "type": "Feature", "properties": { "name": "Jamrock Jerk", "class": "restaurant", "icon": "dog" }, "geometry": { "type": "Point", "coordinates": [ -73.9725945, 40.7533249 ] } },
{ "type": "Feature", "properties": { "name": "Ellington in the Park", "class": "restaurant", "icon": "dog" }, "geometry": { "type": "Point", "coordinates": [ -73.971863, 40.802564 ] } },
{ "type": "Feature", "properties": { "name": "Del Sur Cocina", "class": "restaurant", "icon": "dog" }, "geometry": { "type": "Point", "coordinates": [ -73.93817, 40.70847 ] } },
{ "type": "Feature", "properties": { "name": "Tramezzini NYC", "class": "restaurant", "icon": "dog" }, "geometry": { "type": "Point", "coordinates": [ -73.983472726423003, 40.721184835160606 ] } },
{ "type": "Feature", "properties": { "name": "Table Green & Table Green Café", "class": "restaurant", "icon": "dog" }, "geometry": { "type": "Point", "coordinates": [ -74.01448, 40.704493 ] } },
{ "type": "Feature", "properties": { "name": "Teta's Kitchen", "class": "restaurant", "icon": "dog" }, "geometry": { "type": "Point", "coordinates": [ -73.927196, 40.771159 ] } },
{ "type": "Feature", "properties": { "name": "PROOF Coffee Roasters", "class": "restaurant", "icon": "dog" }, "geometry": { "type": "Point", "coordinates": [ -73.97742, 40.73985 ] } },
{ "type": "Feature", "properties": { "name": "Gertie", "class": "restaurant", "icon": "dog" }, "geometry": { "type": "Point", "coordinates": [ -73.9555675, 40.712389 ] } },
{ "type": "Feature", "properties": { "name": "Cocu", "class": "restaurant", "icon": "dog" }, "geometry": { "type": "Point", "coordinates": [ -74.0027099, 40.73014 ] } },
{ "type": "Feature", "properties": { "name": "Cafe Bilboquet", "class": "restaurant", "icon": "dog" }, "geometry": { "type": "Point", "coordinates": [ -73.97037, 40.76386 ] } },
{ "type": "Feature", "properties": { "name": "Brooklyn Cider House", "class": "restaurant", "icon": "dog" }, "geometry": { "type": "Point", "coordinates": [ -73.9272699, 40.70516 ] } },
{ "type": "Feature", "properties": { "name": "Coco Bistro", "class": "restaurant", "icon": "dog" }, "geometry": { "type": "Point", "coordinates": [ -74.00184, 40.70757 ] } },
{ "type": "Feature", "properties": { "name": "Midnights", "class": "restaurant", "icon": "dog" }, "geometry": { "type": "Point", "coordinates": [ -73.95843, 40.71748 ] } },
{ "type": "Feature", "properties": { "name": "My Cuban Spot", "class": "restaurant", "icon": "dog" }, "geometry": { "type": "Point", "coordinates": [ -73.986153824246898, 40.676908633305601 ] } },
{ "type": "Feature", "properties": { "name": "Burmese Bites", "class": "restaurant", "icon": "dog" }, "geometry": { "type": "Point", "coordinates": [ -73.942825, 40.746882 ] } },
{ "type": "Feature", "properties": { "name": "Turnstyle", "class": "restaurant", "icon": "dog" }, "geometry": { "type": "Point", "coordinates": [ -73.98282, 40.76671 ] } },
{ "type": "Feature", "properties": { "name": "Time Out Market New York", "class": "restaurant", "icon": "dog" }, "geometry": { "type": "Point", "coordinates": [ -73.991810528575101, 40.703721139978214 ] } },
{ "type": "Feature", "properties": { "name": "Tavola 35 Bodega", "class": "restaurant", "icon": "dog" }, "geometry": { "type": "Point", "coordinates": [ -73.94258, 40.7026 ] } },
{ "type": "Feature", "properties": { "name": "Summers SoHo", "class": "restaurant", "icon": "dog" }, "geometry": { "type": "Point", "coordinates": [ -74.000403, 40.727713 ] } },
{ "type": "Feature", "properties": { "name": "Duke's", "class": "restaurant", "icon": "dog" }, "geometry": { "type": "Point", "coordinates": [ -73.9531291, 40.7756878 ] } },
{ "type": "Feature", "properties": { "name": "TSQ Food Court", "class": "restaurant", "icon": "dog" }, "geometry": { "type": "Point", "coordinates": [ -73.9836677, 40.759635 ] } },
{ "type": "Feature", "properties": { "name": "Double Zero", "class": "restaurant", "icon": "dog" }, "geometry": { "type": "Point", "coordinates": [ -73.9896645, 40.7261288 ] } },
{ "type": "Feature", "properties": { "name": "Japan Village", "class": "restaurant", "icon": "dog" }, "geometry": { "type": "Point", "coordinates": [ -74.00641, 40.65597 ] } },
{ "type": "Feature", "properties": { "name": "Crave Fishbar", "class": "restaurant", "icon": "dog" }, "geometry": { "type": "Point", "coordinates": [ -73.97772, 40.78428 ] } },
{ "type": "Feature", "properties": { "name": "Junzi Kitchen", "class": "restaurant", "icon": "dog" }, "geometry": { "type": "Point", "coordinates": [ -73.985688, 40.754886 ] } },
{ "type": "Feature", "properties": { "name": "Palermo Restaurant & Bar", "class": "restaurant", "icon": "dog" }, "geometry": { "type": "Point", "coordinates": [ -73.921228954709903, 40.776908844801397 ] } },
{ "type": "Feature", "properties": { "name": "Down The Road Sports Bar", "class": "restaurant", "icon": "dog" }, "geometry": { "type": "Point", "coordinates": [ -73.9904, 40.76181 ] } },
{ "type": "Feature", "properties": { "name": "Nanoosh", "class": "restaurant", "icon": "dog" }, "geometry": { "type": "Point", "coordinates": [ -73.98165, 40.77586 ] } },
{ "type": "Feature", "properties": { "name": "Glou Wine Bar", "class": "restaurant", "icon": "dog" }, "geometry": { "type": "Point", "coordinates": [ -73.95406, 40.662809 ] } },
{ "type": "Feature", "properties": { "name": "Hole in the Wall", "class": "restaurant", "icon": "dog" }, "geometry": { "type": "Point", "coordinates": [ -74.00563, 40.70837 ] } },
{ "type": "Feature", "properties": { "name": "Belle Reve", "class": "restaurant", "icon": "dog" }, "geometry": { "type": "Point", "coordinates": [ -74.004114388360591, 40.7194897 ] } },
{ "type": "Feature", "properties": { "name": "DokoDemo", "class": "restaurant", "icon": "dog" }, "geometry": { "type": "Point", "coordinates": [ -73.98964, 40.72638 ] } },
{ "type": "Feature", "properties": { "name": "Luna Coffee Shop", "class": "restaurant", "icon": "dog" }, "geometry": { "type": "Point", "coordinates": [ -73.991003443492005, 40.747227074778287 ] } },
{ "type": "Feature", "properties": { "name": "Ariccia", "class": "restaurant", "icon": "dog" }, "geometry": { "type": "Point", "coordinates": [ -74.003428900000017, 40.7291099 ] } },
{ "type": "Feature", "properties": { "name": "Beyond Sushi", "class": "restaurant", "icon": "dog" }, "geometry": { "type": "Point", "coordinates": [ -74.006632486785904, 40.742467525877295 ] } },
{ "type": "Feature", "properties": { "name": "Poké Inn", "class": "restaurant", "icon": "dog" }, "geometry": { "type": "Point", "coordinates": [ -73.988591599999978, 40.7626689 ] } },
{ "type": "Feature", "properties": { "name": "87 On Walker", "class": "restaurant", "icon": "dog" }, "geometry": { "type": "Point", "coordinates": [ -74.001456, 40.718083 ] } },
{ "type": "Feature", "properties": { "name": "Forrest Point", "class": "restaurant", "icon": "dog" }, "geometry": { "type": "Point", "coordinates": [ -73.93229, 40.70319 ] } },
{ "type": "Feature", "properties": { "name": "Brooklyn Floss", "class": "restaurant", "icon": "dog" }, "geometry": { "type": "Point", "coordinates": [ -73.961211900000023, 40.719877 ] } },
{ "type": "Feature", "properties": { "name": "Gem Bing Shop", "class": "restaurant", "icon": "dog" }, "geometry": { "type": "Point", "coordinates": [ -73.9891, 40.72946 ] } },
{ "type": "Feature", "properties": { "name": "The Mark Restaurant", "class": "restaurant", "icon": "dog" }, "geometry": { "type": "Point", "coordinates": [ -73.96333, 40.775355 ] } },
{ "type": "Feature", "properties": { "name": "Fred's Restaurant", "class": "restaurant", "icon": "dog" }, "geometry": { "type": "Point", "coordinates": [ -73.976706700000022, 40.7856233 ] } },
{ "type": "Feature", "properties": { "name": "Bonsai Kakigori", "class": "restaurant", "icon": "dog" }, "geometry": { "type": "Point", "coordinates": [ -74.00102, 40.71897 ] } },
{ "type": "Feature", "properties": { "name": "Green Kitchen", "class": "restaurant", "icon": "dog" }, "geometry": { "type": "Point", "coordinates": [ -73.952815267001, 40.776817137138501 ] } },
{ "type": "Feature", "properties": { "name": "The Morgan Cafe", "class": "restaurant", "icon": "dog" }, "geometry": { "type": "Point", "coordinates": [ -73.98181, 40.74909 ] } },
{ "type": "Feature", "properties": { "name": "Cousins Maine Lobster Time Square", "class": "restaurant", "icon": "dog" }, "geometry": { "type": "Point", "coordinates": [ -73.98564, 40.75755 ] } },
{ "type": "Feature", "properties": { "name": "Sugarcane Raw Bar Grill", "class": "restaurant", "icon": "dog" }, "geometry": { "type": "Point", "coordinates": [ -73.992343, 40.703799 ] } },
{ "type": "Feature", "properties": { "name": "Bolivian Llama Party", "class": "restaurant", "icon": "dog" }, "geometry": { "type": "Point", "coordinates": [ -73.991036, 40.694983 ] } },
{ "type": "Feature", "properties": { "name": "Deweys Pub", "class": "restaurant", "icon": "dog" }, "geometry": { "type": "Point", "coordinates": [ -73.99121, 40.748199 ] } },
{ "type": "Feature", "properties": { "name": "Lazy Suzy Cafe & Shop", "class": "restaurant", "icon": "dog" }, "geometry": { "type": "Point", "coordinates": [ -73.92549, 40.69946 ] } },
{ "type": "Feature", "properties": { "name": "Rawsome Treats", "class": "restaurant", "icon": "dog" }, "geometry": { "type": "Point", "coordinates": [ -73.988673948479502, 40.720868695498403 ] } },
{ "type": "Feature", "properties": { "name": "Cafe Mocha", "class": "restaurant", "icon": "dog" }, "geometry": { "type": "Point", "coordinates": [ -73.98803, 40.72781 ] } },
{ "type": "Feature", "properties": { "name": "Black Cat LES", "class": "restaurant", "icon": "dog" }, "geometry": { "type": "Point", "coordinates": [ -73.984509, 40.719129 ] } },
{ "type": "Feature", "properties": { "name": "Hunger Pang", "class": "restaurant", "icon": "dog" }, "geometry": { "type": "Point", "coordinates": [ -73.969696044921903, 40.647056579589794 ] } },
{ "type": "Feature", "properties": { "name": "Amsterdam Ale House", "class": "restaurant", "icon": "dog" }, "geometry": { "type": "Point", "coordinates": [ -73.979910658960094, 40.781411745145505 ] } },
{ "type": "Feature", "properties": { "name": "NaNa Thai Street", "class": "restaurant", "icon": "dog" }, "geometry": { "type": "Point", "coordinates": [ -73.98854, 40.73954 ] } },
{ "type": "Feature", "properties": { "name": "Tailfeather", "class": "restaurant", "icon": "dog" }, "geometry": { "type": "Point", "coordinates": [ -73.96089, 40.69415 ] } },
{ "type": "Feature", "properties": { "name": "King Dumplings", "class": "restaurant", "icon": "dog" }, "geometry": { "type": "Point", "coordinates": [ -73.99169, 40.71605 ] } },
{ "type": "Feature", "properties": { "name": "Vegan Love", "class": "restaurant", "icon": "dog" }, "geometry": { "type": "Point", "coordinates": [ -73.983253601849398, 40.7285173652335 ] } },
{ "type": "Feature", "properties": { "name": "Panda Bubble Tea", "class": "restaurant", "icon": "dog" }, "geometry": { "type": "Point", "coordinates": [ -73.9798863371133, 40.665037751510702 ] } },
{ "type": "Feature", "properties": { "name": "Fournos Theophilos", "class": "restaurant", "icon": "dog" }, "geometry": { "type": "Point", "coordinates": [ -73.981127, 40.756312 ] } },
{ "type": "Feature", "properties": { "name": "Gastroteca", "class": "restaurant", "icon": "dog" }, "geometry": { "type": "Point", "coordinates": [ -73.925540484487996, 40.758753202865293 ] } },
{ "type": "Feature", "properties": { "name": "Yifang Taiwan Fruit Tea", "class": "restaurant", "icon": "dog" }, "geometry": { "type": "Point", "coordinates": [ -73.98809, 40.72905 ] } },
{ "type": "Feature", "properties": { "name": "Wowfulls", "class": "restaurant", "icon": "dog" }, "geometry": { "type": "Point", "coordinates": [ -73.983519, 40.721047 ] } },
{ "type": "Feature", "properties": { "name": "Harajuku Sushi and Crepe", "class": "restaurant", "icon": "dog" }, "geometry": { "type": "Point", "coordinates": [ -73.992362976074205, 40.749130249023402 ] } },
{ "type": "Feature", "properties": { "name": "Astoria Craft", "class": "restaurant", "icon": "dog" }, "geometry": { "type": "Point", "coordinates": [ -73.92715, 40.77332 ] } },
{ "type": "Feature", "properties": { "name": "Juicology Kitchen", "class": "restaurant", "icon": "dog" }, "geometry": { "type": "Point", "coordinates": [ -73.990384, 40.747727 ] } },
{ "type": "Feature", "properties": { "name": "Paloma at The Hotel Hendricks", "class": "restaurant", "icon": "dog" }, "geometry": { "type": "Point", "coordinates": [ -73.984092, 40.751761 ] } },
{ "type": "Feature", "properties": { "name": "Chrome Cookin", "class": "restaurant", "icon": "dog" }, "geometry": { "type": "Point", "coordinates": [ -74.007684, 40.741285 ] } },
{ "type": "Feature", "properties": { "name": "The Brooklyn Barge", "class": "restaurant", "icon": "dog" }, "geometry": { "type": "Point", "coordinates": [ -73.961047, 40.729108 ] } },
{ "type": "Feature", "properties": { "name": "Chu-Ros Thai", "class": "restaurant", "icon": "dog" }, "geometry": { "type": "Point", "coordinates": [ -73.94873, 40.78922 ] } },
{ "type": "Feature", "properties": { "name": "Vintage", "class": "restaurant", "icon": "dog" }, "geometry": { "type": "Point", "coordinates": [ -73.915578900000014, 40.779247 ] } },
{ "type": "Feature", "properties": { "name": "Hey Hey Canteen", "class": "restaurant", "icon": "dog" }, "geometry": { "type": "Point", "coordinates": [ -73.9798863371133, 40.665037751510702 ] } },
{ "type": "Feature", "properties": { "name": "George Keeley", "class": "restaurant", "icon": "dog" }, "geometry": { "type": "Point", "coordinates": [ -73.97597, 40.78583 ] } },
{ "type": "Feature", "properties": { "name": "The Blue Rooftop", "class": "restaurant", "icon": "dog" }, "geometry": { "type": "Point", "coordinates": [ -73.98163, 40.74526 ] } },
{ "type": "Feature", "properties": { "name": "Yo-Burger", "class": "restaurant", "icon": "dog" }, "geometry": { "type": "Point", "coordinates": [ -73.90695, 40.88739 ] } },
{ "type": "Feature", "properties": { "name": "The Meatball Shop", "class": "restaurant", "icon": "dog" }, "geometry": { "type": "Point", "coordinates": [ -74.0015369, 40.7459138 ] } },
{ "type": "Feature", "properties": { "name": "GMT Tavern", "class": "restaurant", "icon": "dog" }, "geometry": { "type": "Point", "coordinates": [ -73.999104554425998, 40.7280325954126 ] } },
{ "type": "Feature", "properties": { "name": "Go Sushi", "class": "restaurant", "icon": "dog" }, "geometry": { "type": "Point", "coordinates": [ -73.99616, 40.71206 ] } },
{ "type": "Feature", "properties": { "name": "Cobble & Co.", "class": "restaurant", "icon": "dog" }, "geometry": { "type": "Point", "coordinates": [ -74.00356, 40.70701 ] } },
{ "type": "Feature", "properties": { "name": "Tonic Bar & Restaurant", "class": "restaurant", "icon": "dog" }, "geometry": { "type": "Point", "coordinates": [ -73.98366, 40.75999 ] } },
{ "type": "Feature", "properties": { "name": "Savann Mediterranean  Cuisine Restaurant", "class": "restaurant", "icon": "dog" }, "geometry": { "type": "Point", "coordinates": [ -73.95201, 40.80848 ] } },
{ "type": "Feature", "properties": { "name": "Posto", "class": "restaurant", "icon": "dog" }, "geometry": { "type": "Point", "coordinates": [ -73.98282, 40.73483 ] } },
{ "type": "Feature", "properties": { "name": "A-Pou's Taste", "class": "restaurant", "icon": "dog" }, "geometry": { "type": "Point", "coordinates": [ -73.93616, 40.71326 ] } },
{ "type": "Feature", "properties": { "name": "Zaid Gourmet", "class": "restaurant", "icon": "dog" }, "geometry": { "type": "Point", "coordinates": [ -73.94815, 40.79572 ] } },
{ "type": "Feature", "properties": { "name": "Rocco's Italian Sausages & Philly Cheese Steaks", "class": "restaurant", "icon": "dog" }, "geometry": { "type": "Point", "coordinates": [ -73.912587958335806, 40.752730753346796 ] } },
{ "type": "Feature", "properties": { "name": "Demi Monde", "class": "restaurant", "icon": "dog" }, "geometry": { "type": "Point", "coordinates": [ -73.93362, 40.70427 ] } },
{ "type": "Feature", "properties": { "name": "The House of Brews", "class": "restaurant", "icon": "dog" }, "geometry": { "type": "Point", "coordinates": [ -73.990022, 40.76092 ] } },
{ "type": "Feature", "properties": { "name": "Asaba Kitchen", "class": "restaurant", "icon": "dog" }, "geometry": { "type": "Point", "coordinates": [ -73.93167, 40.686661 ] } },
{ "type": "Feature", "properties": { "name": "Grand Banks", "class": "restaurant", "icon": "dog" }, "geometry": { "type": "Point", "coordinates": [ -74.015886192889084, 40.720336857985799 ] } },
{ "type": "Feature", "properties": { "name": "Healthy Greens Gourmet Deli", "class": "restaurant", "icon": "dog" }, "geometry": { "type": "Point", "coordinates": [ -73.989172083189914, 40.730928663919201 ] } },
{ "type": "Feature", "properties": { "name": "The Hop Shop Brooklyn", "class": "restaurant", "icon": "dog" }, "geometry": { "type": "Point", "coordinates": [ -74.00135, 40.6875 ] } },
{ "type": "Feature", "properties": { "name": "Seed + Mill", "class": "restaurant", "icon": "dog" }, "geometry": { "type": "Point", "coordinates": [ -74.0056454, 40.7420723 ] } },
{ "type": "Feature", "properties": { "name": "Lot45", "class": "restaurant", "icon": "dog" }, "geometry": { "type": "Point", "coordinates": [ -73.9224824, 40.7071251 ] } },
{ "type": "Feature", "properties": { "name": "Chavela's", "class": "restaurant", "icon": "dog" }, "geometry": { "type": "Point", "coordinates": [ -73.95711, 40.67347 ] } },
{ "type": "Feature", "properties": { "name": "The Levee", "class": "restaurant", "icon": "dog" }, "geometry": { "type": "Point", "coordinates": [ -73.961720466613798, 40.716330384777606 ] } },
{ "type": "Feature", "properties": { "name": "Yaya Tea Garden", "class": "restaurant", "icon": "dog" }, "geometry": { "type": "Point", "coordinates": [ -73.996276855468793, 40.719226837158203 ] } },
{ "type": "Feature", "properties": { "name": "Stone Park Cafe", "class": "restaurant", "icon": "dog" }, "geometry": { "type": "Point", "coordinates": [ -73.98332, 40.67297 ] } },
{ "type": "Feature", "properties": { "name": "The Butcher's Daughter", "class": "restaurant", "icon": "dog" }, "geometry": { "type": "Point", "coordinates": [ -74.00606, 40.73639 ] } },
{ "type": "Feature", "properties": { "name": "Pinks Cantina", "class": "restaurant", "icon": "dog" }, "geometry": { "type": "Point", "coordinates": [ -73.99202, 40.72664 ] } },
{ "type": "Feature", "properties": { "name": "Amity Hall Uptown", "class": "restaurant", "icon": "dog" }, "geometry": { "type": "Point", "coordinates": [ -73.96475, 40.80231 ] } },
{ "type": "Feature", "properties": { "name": "King David Tacos", "class": "restaurant", "icon": "dog" }, "geometry": { "type": "Point", "coordinates": [ -73.988183, 40.743416 ] } },
{ "type": "Feature", "properties": { "name": "New York Hot Dogs", "class": "restaurant", "icon": "dog" }, "geometry": { "type": "Point", "coordinates": [ -73.96342, 40.77942 ] } },
{ "type": "Feature", "properties": { "name": "Bar Belly", "class": "restaurant", "icon": "dog" }, "geometry": { "type": "Point", "coordinates": [ -73.9916, 40.71506 ] } },
{ "type": "Feature", "properties": { "name": "MomenTea", "class": "restaurant", "icon": "dog" }, "geometry": { "type": "Point", "coordinates": [ -73.99972, 40.73882 ] } },
{ "type": "Feature", "properties": { "name": "Circa Brewing", "class": "restaurant", "icon": "dog" }, "geometry": { "type": "Point", "coordinates": [ -73.98603, 40.69165 ] } },
{ "type": "Feature", "properties": { "name": "Confectionery", "class": "restaurant", "icon": "dog" }, "geometry": { "type": "Point", "coordinates": [ -73.98305, 40.72732 ] } },
{ "type": "Feature", "properties": { "name": "The Daisy", "class": "restaurant", "icon": "dog" }, "geometry": { "type": "Point", "coordinates": [ -73.952434, 40.77741 ] } },
{ "type": "Feature", "properties": { "name": "Russian Samovar Restaurant and Piano Bar", "class": "restaurant", "icon": "dog" }, "geometry": { "type": "Point", "coordinates": [ -73.98469, 40.7632 ] } },
{ "type": "Feature", "properties": { "name": "Pete's Tavern", "class": "restaurant", "icon": "dog" }, "geometry": { "type": "Point", "coordinates": [ -73.986698, 40.73647 ] } },
{ "type": "Feature", "properties": { "name": "Boulton & Watt", "class": "restaurant", "icon": "dog" }, "geometry": { "type": "Point", "coordinates": [ -73.986439, 40.7224963 ] } },
{ "type": "Feature", "properties": { "name": "Ray's Candy Store", "class": "restaurant", "icon": "dog" }, "geometry": { "type": "Point", "coordinates": [ -73.983570749525796, 40.726277624394498 ] } },
{ "type": "Feature", "properties": { "name": "Eleganza Deli Gourmet", "class": "restaurant", "icon": "dog" }, "geometry": { "type": "Point", "coordinates": [ -73.95289, 40.81287 ] } },
{ "type": "Feature", "properties": { "name": "My Moon", "class": "restaurant", "icon": "dog" }, "geometry": { "type": "Point", "coordinates": [ -73.955217400000024, 40.7188586 ] } },
{ "type": "Feature", "properties": { "name": "Big Portion", "class": "restaurant", "icon": "dog" }, "geometry": { "type": "Point", "coordinates": [ -73.979497, 40.761167 ] } },
{ "type": "Feature", "properties": { "name": "Cafe con Libros", "class": "restaurant", "icon": "dog" }, "geometry": { "type": "Point", "coordinates": [ -73.952563, 40.674261 ] } },
{ "type": "Feature", "properties": { "name": "Harvey", "class": "restaurant", "icon": "dog" }, "geometry": { "type": "Point", "coordinates": [ -73.95884, 40.72161 ] } },
{ "type": "Feature", "properties": { "name": "Dromedary Urban Tiki Bar", "class": "restaurant", "icon": "dog" }, "geometry": { "type": "Point", "coordinates": [ -73.91585355409309, 40.699542734209402 ] } },
{ "type": "Feature", "properties": { "name": "Blockheads", "class": "restaurant", "icon": "dog" }, "geometry": { "type": "Point", "coordinates": [ -73.987631610062508, 40.762715529444499 ] } },
{ "type": "Feature", "properties": { "name": "Manhattan Fruit Market", "class": "restaurant", "icon": "dog" }, "geometry": { "type": "Point", "coordinates": [ -74.0074976, 40.7434243 ] } },
{ "type": "Feature", "properties": { "name": "The Casbah - Halal Cart", "class": "restaurant", "icon": "dog" }, "geometry": { "type": "Point", "coordinates": [ -73.981713652610793, 40.773737186292003 ] } },
{ "type": "Feature", "properties": { "name": "Costas - Arepas", "class": "restaurant", "icon": "dog" }, "geometry": { "type": "Point", "coordinates": [ -73.98511670529841, 40.749481916427605 ] } },
{ "type": "Feature", "properties": { "name": "Gran Torino", "class": "restaurant", "icon": "dog" }, "geometry": { "type": "Point", "coordinates": [ -73.95897, 40.71832 ] } },
{ "type": "Feature", "properties": { "name": "Tacocina", "class": "restaurant", "icon": "dog" }, "geometry": { "type": "Point", "coordinates": [ -73.967644, 40.715238 ] } },
{ "type": "Feature", "properties": { "name": "Fresh Salt", "class": "restaurant", "icon": "dog" }, "geometry": { "type": "Point", "coordinates": [ -74.00244, 40.70707 ] } },
{ "type": "Feature", "properties": { "name": "The Juicer shack", "class": "restaurant", "icon": "dog" }, "geometry": { "type": "Point", "coordinates": [ -73.89172, 40.82586 ] } },
{ "type": "Feature", "properties": { "name": "Cousins Maine Lobster", "class": "restaurant", "icon": "dog" }, "geometry": { "type": "Point", "coordinates": [ -73.98321, 40.74121 ] } },
{ "type": "Feature", "properties": { "name": "The Writing Room", "class": "restaurant", "icon": "dog" }, "geometry": { "type": "Point", "coordinates": [ -73.95094, 40.77946 ] } },
{ "type": "Feature", "properties": { "name": "L'industrie Pizzeria", "class": "restaurant", "icon": "dog" }, "geometry": { "type": "Point", "coordinates": [ -73.95783, 40.71162 ] } },
{ "type": "Feature", "properties": { "name": "The Boss of the Tacos", "class": "restaurant", "icon": "dog" }, "geometry": { "type": "Point", "coordinates": [ -73.912865, 40.7563152 ] } },
{ "type": "Feature", "properties": { "name": "Harlem Food Bar", "class": "restaurant", "icon": "dog" }, "geometry": { "type": "Point", "coordinates": [ -73.956317724425702, 40.802810029862897 ] } },
{ "type": "Feature", "properties": { "name": "Park West Cafe", "class": "restaurant", "icon": "dog" }, "geometry": { "type": "Point", "coordinates": [ -73.959466900000024, 40.79937 ] } },
{ "type": "Feature", "properties": { "name": "Downtown Bakery Cocina Mexicana", "class": "restaurant", "icon": "dog" }, "geometry": { "type": "Point", "coordinates": [ -73.98711, 40.72543 ] } },
{ "type": "Feature", "properties": { "name": "Metroarepas", "class": "restaurant", "icon": "dog" }, "geometry": { "type": "Point", "coordinates": [ -73.98226, 40.76524 ] } },
{ "type": "Feature", "properties": { "name": "NY Dosas", "class": "restaurant", "icon": "dog" }, "geometry": { "type": "Point", "coordinates": [ -73.998637797669986, 40.730838607989298 ] } },
{ "type": "Feature", "properties": { "name": "Paprika kosher", "class": "restaurant", "icon": "dog" }, "geometry": { "type": "Point", "coordinates": [ -73.9822, 40.74727 ] } },
{ "type": "Feature", "properties": { "name": "SMARTWICH", "class": "restaurant", "icon": "dog" }, "geometry": { "type": "Point", "coordinates": [ -73.989, 40.73026 ] } },
{ "type": "Feature", "properties": { "name": "Areppas", "class": "restaurant", "icon": "dog" }, "geometry": { "type": "Point", "coordinates": [ -73.96756, 40.76052 ] } },
{ "type": "Feature", "properties": { "name": "Bar Verde", "class": "restaurant", "icon": "dog" }, "geometry": { "type": "Point", "coordinates": [ -73.989736139774294, 40.726084906103395 ] } },
{ "type": "Feature", "properties": { "name": "Poké Fun", "class": "restaurant", "icon": "dog" }, "geometry": { "type": "Point", "coordinates": [ -73.99375, 40.7547 ] } },
{ "type": "Feature", "properties": { "name": "Cafe Madeline", "class": "restaurant", "icon": "dog" }, "geometry": { "type": "Point", "coordinates": [ -73.963353900000016, 40.6419312 ] } },
{ "type": "Feature", "properties": { "name": "King Souvlaki", "class": "restaurant", "icon": "dog" }, "geometry": { "type": "Point", "coordinates": [ -73.9822, 40.76473 ] } },
{ "type": "Feature", "properties": { "name": "Pietro Nolita", "class": "restaurant", "icon": "dog" }, "geometry": { "type": "Point", "coordinates": [ -73.994662, 40.721020524433605 ] } },
{ "type": "Feature", "properties": { "name": "Zai Lai: Homestyle Taiwanese", "class": "restaurant", "icon": "dog" }, "geometry": { "type": "Point", "coordinates": [ -73.983016, 40.767127 ] } },
{ "type": "Feature", "properties": { "name": "The Bean", "class": "restaurant", "icon": "dog" }, "geometry": { "type": "Point", "coordinates": [ -73.989651993883101, 40.725761791523702 ] } },
{ "type": "Feature", "properties": { "name": "Raise New York", "class": "restaurant", "icon": "dog" }, "geometry": { "type": "Point", "coordinates": [ -73.98032, 40.7431 ] } },
{ "type": "Feature", "properties": { "name": "Makana BBQ & Poke", "class": "restaurant", "icon": "dog" }, "geometry": { "type": "Point", "coordinates": [ -73.965062362033706, 40.800349875362393 ] } },
{ "type": "Feature", "properties": { "name": "Wowfulls", "class": "restaurant", "icon": "dog" }, "geometry": { "type": "Point", "coordinates": [ -73.961286205468795, 40.720995831946702 ] } },
{ "type": "Feature", "properties": { "name": "The Bowery Market", "class": "restaurant", "icon": "dog" }, "geometry": { "type": "Point", "coordinates": [ -73.992027282714801, 40.726642608642599 ] } },
{ "type": "Feature", "properties": { "name": "Le Garage", "class": "restaurant", "icon": "dog" }, "geometry": { "type": "Point", "coordinates": [ -73.926594874318099, 40.699386396886098 ] } },
{ "type": "Feature", "properties": { "name": "King David Tacos", "class": "restaurant", "icon": "dog" }, "geometry": { "type": "Point", "coordinates": [ -73.97004, 40.672302 ] } },
{ "type": "Feature", "properties": { "name": "B'klyn Burro", "class": "restaurant", "icon": "dog" }, "geometry": { "type": "Point", "coordinates": [ -73.9640973, 40.6827188 ] } },
{ "type": "Feature", "properties": { "name": "Good Enough to Eat", "class": "restaurant", "icon": "dog" }, "geometry": { "type": "Point", "coordinates": [ -73.9727859590175, 40.785943604241602 ] } },
{ "type": "Feature", "properties": { "name": "Penn Plates", "class": "restaurant", "icon": "dog" }, "geometry": { "type": "Point", "coordinates": [ -73.9923498, 40.751262700000012 ] } },
{ "type": "Feature", "properties": { "name": "Arriba Arriba Midtown", "class": "restaurant", "icon": "dog" }, "geometry": { "type": "Point", "coordinates": [ -73.988285064697294, 40.764128811107398 ] } },
{ "type": "Feature", "properties": { "name": "Bex Waffles", "class": "restaurant", "icon": "dog" }, "geometry": { "type": "Point", "coordinates": [ -73.99323, 40.75882 ] } },
{ "type": "Feature", "properties": { "name": "Salvatoria Kitchen & Bar", "class": "restaurant", "icon": "dog" }, "geometry": { "type": "Point", "coordinates": [ -73.92486, 40.76142 ] } },
{ "type": "Feature", "properties": { "name": "West Bank Gourmet", "class": "restaurant", "icon": "dog" }, "geometry": { "type": "Point", "coordinates": [ -74.01553, 40.70638 ] } },
{ "type": "Feature", "properties": { "name": "Chongkho Restaurant", "class": "restaurant", "icon": "dog" }, "geometry": { "type": "Point", "coordinates": [ -73.94929, 40.71101 ] } },
{ "type": "Feature", "properties": { "name": "Plant Food + Wine", "class": "restaurant", "icon": "dog" }, "geometry": { "type": "Point", "coordinates": [ -73.989751, 40.7261989 ] } },
{ "type": "Feature", "properties": { "name": "Finestra Restaurant", "class": "restaurant", "icon": "dog" }, "geometry": { "type": "Point", "coordinates": [ -73.95288, 40.76751 ] } },
{ "type": "Feature", "properties": { "name": "Boule & Cherie", "class": "restaurant", "icon": "dog" }, "geometry": { "type": "Point", "coordinates": [ -73.983700563381092, 40.776134002373787 ] } },
{ "type": "Feature", "properties": { "name": "Sidecar", "class": "restaurant", "icon": "dog" }, "geometry": { "type": "Point", "coordinates": [ -73.989748, 40.665421 ] } },
{ "type": "Feature", "properties": { "name": "Loco Coco", "class": "restaurant", "icon": "dog" }, "geometry": { "type": "Point", "coordinates": [ -73.96587, 40.76512 ] } },
{ "type": "Feature", "properties": { "name": "VinoTapa", "class": "restaurant", "icon": "dog" }, "geometry": { "type": "Point", "coordinates": [ -73.979010242258497, 40.743686846723499 ] } },
{ "type": "Feature", "properties": { "name": "Harlem Shake", "class": "restaurant", "icon": "dog" }, "geometry": { "type": "Point", "coordinates": [ -73.946415805627595, 40.807098806014793 ] } },
{ "type": "Feature", "properties": { "name": "Soho Park", "class": "restaurant", "icon": "dog" }, "geometry": { "type": "Point", "coordinates": [ -73.985713, 40.7623893193405 ] } },
{ "type": "Feature", "properties": { "name": "Royal Grill Halal Food", "class": "restaurant", "icon": "dog" }, "geometry": { "type": "Point", "coordinates": [ -73.98316, 40.75614 ] } },
{ "type": "Feature", "properties": { "name": "Purple Rice Korean Kitchen", "class": "restaurant", "icon": "dog" }, "geometry": { "type": "Point", "coordinates": [ -73.99466, 40.74964 ] } },
{ "type": "Feature", "properties": { "name": "Uluangies Hawaiian Shave Ice", "class": "restaurant", "icon": "dog" }, "geometry": { "type": "Point", "coordinates": [ -73.87776, 40.66187 ] } },
{ "type": "Feature", "properties": { "name": "Bar Pisellino", "class": "restaurant", "icon": "dog" }, "geometry": { "type": "Point", "coordinates": [ -74.00347, 40.733 ] } },
{ "type": "Feature", "properties": { "name": "Pasha's", "class": "restaurant", "icon": "dog" }, "geometry": { "type": "Point", "coordinates": [ -74.00996, 40.70681 ] } },
{ "type": "Feature", "properties": { "name": "Nonna Beppa Soho", "class": "restaurant", "icon": "dog" }, "geometry": { "type": "Point", "coordinates": [ -74.00713, 40.72564 ] } },
{ "type": "Feature", "properties": { "name": "The Springs Bar and Lounge", "class": "restaurant", "icon": "dog" }, "geometry": { "type": "Point", "coordinates": [ -73.958056484758501, 40.733364402627501 ] } },
{ "type": "Feature", "properties": { "name": "NY Gyro Xpress", "class": "restaurant", "icon": "dog" }, "geometry": { "type": "Point", "coordinates": [ -74.0007, 40.74194 ] } },
{ "type": "Feature", "properties": { "name": "Delice & Sarrasin", "class": "restaurant", "icon": "dog" }, "geometry": { "type": "Point", "coordinates": [ -74.00065, 40.73377 ] } },
{ "type": "Feature", "properties": { "name": "Yummy Yummy In My Tummy", "class": "restaurant", "icon": "dog" }, "geometry": { "type": "Point", "coordinates": [ -73.951762430369897, 40.714728380295497 ] } },
{ "type": "Feature", "properties": { "name": "The Bean", "class": "restaurant", "icon": "dog" }, "geometry": { "type": "Point", "coordinates": [ -73.98482, 40.72827 ] } },
{ "type": "Feature", "properties": { "name": "Monte's", "class": "restaurant", "icon": "dog" }, "geometry": { "type": "Point", "coordinates": [ -73.98724, 40.6775499 ] } },
{ "type": "Feature", "properties": { "name": "Bronx Night Market", "class": "restaurant", "icon": "dog" }, "geometry": { "type": "Point", "coordinates": [ -73.890254, 40.860748 ] } },
{ "type": "Feature", "properties": { "name": "Matto Espresso", "class": "restaurant", "icon": "dog" }, "geometry": { "type": "Point", "coordinates": [ -73.97776, 40.75024 ] } },
{ "type": "Feature", "properties": { "name": "Farah Anatolia", "class": "restaurant", "icon": "dog" }, "geometry": { "type": "Point", "coordinates": [ -73.96029, 40.76146 ] } },
{ "type": "Feature", "properties": { "name": "PROOF Coffee Roasters", "class": "restaurant", "icon": "dog" }, "geometry": { "type": "Point", "coordinates": [ -74.008651, 40.709487 ] } },
{ "type": "Feature", "properties": { "name": "Building on Bond", "class": "restaurant", "icon": "dog" }, "geometry": { "type": "Point", "coordinates": [ -73.985258116560999, 40.686466067969 ] } },
{ "type": "Feature", "properties": { "name": "Mocha Burger + SUB Express UES", "class": "restaurant", "icon": "dog" }, "geometry": { "type": "Point", "coordinates": [ -73.953315764665589, 40.776199235758902 ] } },
{ "type": "Feature", "properties": { "name": "West Wine Bar", "class": "restaurant", "icon": "dog" }, "geometry": { "type": "Point", "coordinates": [ -73.959234920237705, 40.728867806956899 ] } },
{ "type": "Feature", "properties": { "name": "Clinton Hall & Rooftop Beer Garden", "class": "restaurant", "icon": "dog" }, "geometry": { "type": "Point", "coordinates": [ -73.95903, 40.71502 ] } },
{ "type": "Feature", "properties": { "name": "BurgerFi", "class": "restaurant", "icon": "dog" }, "geometry": { "type": "Point", "coordinates": [ -74.02131, 40.61883 ] } },
{ "type": "Feature", "properties": { "name": "Santa Salsa", "class": "restaurant", "icon": "dog" }, "geometry": { "type": "Point", "coordinates": [ -73.922343, 40.705553 ] } },
{ "type": "Feature", "properties": { "name": "La Loba Cantina", "class": "restaurant", "icon": "dog" }, "geometry": { "type": "Point", "coordinates": [ -73.97283, 40.64569 ] } },
{ "type": "Feature", "properties": { "name": "Biga Pizza Italiana Contemporanea", "class": "restaurant", "icon": "dog" }, "geometry": { "type": "Point", "coordinates": [ -73.984076, 40.72127 ] } },
{ "type": "Feature", "properties": { "name": "Sugar Factory", "class": "restaurant", "icon": "dog" }, "geometry": { "type": "Point", "coordinates": [ -74.007317025142001, 40.740679028283502 ] } },
{ "type": "Feature", "properties": { "name": "Las Delicias Patisserie", "class": "restaurant", "icon": "dog" }, "geometry": { "type": "Point", "coordinates": [ -73.9910605, 40.7346439 ] } },
{ "type": "Feature", "properties": { "name": "Pizza by Lucilles", "class": "restaurant", "icon": "dog" }, "geometry": { "type": "Point", "coordinates": [ -73.93897, 40.82591 ] } },
{ "type": "Feature", "properties": { "name": "Dough Vale", "class": "restaurant", "icon": "dog" }, "geometry": { "type": "Point", "coordinates": [ -73.95407, 40.70933 ] } },
{ "type": "Feature", "properties": { "name": "Handsome Rice", "class": "restaurant", "icon": "dog" }, "geometry": { "type": "Point", "coordinates": [ -73.98123, 40.74466 ] } },
{ "type": "Feature", "properties": { "name": "Mango Mango Dessert", "class": "restaurant", "icon": "dog" }, "geometry": { "type": "Point", "coordinates": [ -73.98858, 40.72911 ] } },
{ "type": "Feature", "properties": { "name": "Sweatshop", "class": "restaurant", "icon": "dog" }, "geometry": { "type": "Point", "coordinates": [ -73.959786, 40.714954204003398 ] } },
{ "type": "Feature", "properties": { "name": "La Ñapa", "class": "restaurant", "icon": "dog" }, "geometry": { "type": "Point", "coordinates": [ -73.950252, 40.675979 ] } },
{ "type": "Feature", "properties": { "name": "Cafe Greenpoint", "class": "restaurant", "icon": "dog" }, "geometry": { "type": "Point", "coordinates": [ -73.950889, 40.724431 ] } },
{ "type": "Feature", "properties": { "name": "Shah's Halal Food", "class": "restaurant", "icon": "dog" }, "geometry": { "type": "Point", "coordinates": [ -73.919542557335504, 40.741912297785603 ] } },
{ "type": "Feature", "properties": { "name": "Lexington Pizza Parlour", "class": "restaurant", "icon": "dog" }, "geometry": { "type": "Point", "coordinates": [ -73.9487429, 40.789283 ] } },
{ "type": "Feature", "properties": { "name": "Cafe Colette", "class": "restaurant", "icon": "dog" }, "geometry": { "type": "Point", "coordinates": [ -73.957565, 40.719747 ] } },
{ "type": "Feature", "properties": { "name": "CAFE GOSSIP", "class": "restaurant", "icon": "dog" }, "geometry": { "type": "Point", "coordinates": [ -73.9984, 40.60489 ] } },
{ "type": "Feature", "properties": { "name": "The Brooklyn Firefly", "class": "restaurant", "icon": "dog" }, "geometry": { "type": "Point", "coordinates": [ -74.02631, 40.63468 ] } },
{ "type": "Feature", "properties": { "name": "The Meatball Shop", "class": "restaurant", "icon": "dog" }, "geometry": { "type": "Point", "coordinates": [ -74.000607, 40.736125 ] } },
{ "type": "Feature", "properties": { "name": "PROOF Coffee Roasters", "class": "restaurant", "icon": "dog" }, "geometry": { "type": "Point", "coordinates": [ -73.983375549316406, 40.750831604003899 ] } },
{ "type": "Feature", "properties": { "name": "Bonsai Kakigōri", "class": "restaurant", "icon": "dog" }, "geometry": { "type": "Point", "coordinates": [ -73.987934, 40.721372 ] } },
{ "type": "Feature", "properties": { "name": "Sakura of Japan", "class": "restaurant", "icon": "dog" }, "geometry": { "type": "Point", "coordinates": [ -73.9893, 40.74725 ] } },
{ "type": "Feature", "properties": { "name": "Artichoke Basille's Pizza", "class": "restaurant", "icon": "dog" }, "geometry": { "type": "Point", "coordinates": [ -74.007505, 40.706518 ] } },
{ "type": "Feature", "properties": { "name": "Fedoroff's Roast Pork", "class": "restaurant", "icon": "dog" }, "geometry": { "type": "Point", "coordinates": [ -73.9555245, 40.7189526 ] } },
{ "type": "Feature", "properties": { "name": "The Half Pint", "class": "restaurant", "icon": "dog" }, "geometry": { "type": "Point", "coordinates": [ -73.99851, 40.72946 ] } },
{ "type": "Feature", "properties": { "name": "Il Caffe Latte", "class": "restaurant", "icon": "dog" }, "geometry": { "type": "Point", "coordinates": [ -73.948417663574205, 40.804397583007798 ] } },
{ "type": "Feature", "properties": { "name": "Mama's Restaurant", "class": "restaurant", "icon": "dog" }, "geometry": { "type": "Point", "coordinates": [ -73.936081, 40.799931 ] } },
{ "type": "Feature", "properties": { "name": "Seawalk Restaurant", "class": "restaurant", "icon": "dog" }, "geometry": { "type": "Point", "coordinates": [ -73.92837, 40.86667 ] } },
{ "type": "Feature", "properties": { "name": "Cortadito Cuban Cuisine", "class": "restaurant", "icon": "dog" }, "geometry": { "type": "Point", "coordinates": [ -73.982784589541993, 40.722483112364998 ] } },
{ "type": "Feature", "properties": { "name": "Tang Pavilion", "class": "restaurant", "icon": "dog" }, "geometry": { "type": "Point", "coordinates": [ -73.977189, 40.762849 ] } },
{ "type": "Feature", "properties": { "name": "Hard Times Christmas Liquors at the Sunset bar", "class": "restaurant", "icon": "dog" }, "geometry": { "type": "Point", "coordinates": [ -73.92164, 40.70794 ] } },
{ "type": "Feature", "properties": { "name": "108 Food Dried Hot Pot", "class": "restaurant", "icon": "dog" }, "geometry": { "type": "Point", "coordinates": [ -73.96738, 40.80271 ] } },
{ "type": "Feature", "properties": { "name": "Zeus Kitchen", "class": "restaurant", "icon": "dog" }, "geometry": { "type": "Point", "coordinates": [ -73.92673, 40.77173 ] } },
{ "type": "Feature", "properties": { "name": "Vish Hummus & Happiness", "class": "restaurant", "icon": "dog" }, "geometry": { "type": "Point", "coordinates": [ -73.96197, 40.71684 ] } },
{ "type": "Feature", "properties": { "name": "Yumpling Food Truck", "class": "restaurant", "icon": "dog" }, "geometry": { "type": "Point", "coordinates": [ -73.980194091796903, 40.760269165039098 ] } },
{ "type": "Feature", "properties": { "name": "La Rustica Pizza", "class": "restaurant", "icon": "dog" }, "geometry": { "type": "Point", "coordinates": [ -73.95238, 40.78411 ] } },
{ "type": "Feature", "properties": { "name": "PROOF Coffee Roasters", "class": "restaurant", "icon": "dog" }, "geometry": { "type": "Point", "coordinates": [ -73.944366455078097, 40.814994812011705 ] } },
{ "type": "Feature", "properties": { "name": "Beef & Fish", "class": "restaurant", "icon": "dog" }, "geometry": { "type": "Point", "coordinates": [ -74.007522583007798, 40.641242980956996 ] } },
{ "type": "Feature", "properties": { "name": "Genesis BBQ Skewer", "class": "restaurant", "icon": "dog" }, "geometry": { "type": "Point", "coordinates": [ -73.9216163, 40.7600009 ] } },
{ "type": "Feature", "properties": { "name": "Bait & Hook", "class": "restaurant", "icon": "dog" }, "geometry": { "type": "Point", "coordinates": [ -73.985103, 40.73263 ] } },
{ "type": "Feature", "properties": { "name": "AOA Bar & Grill", "class": "restaurant", "icon": "dog" }, "geometry": { "type": "Point", "coordinates": [ -74.005440545990197, 40.720687850059207 ] } },
{ "type": "Feature", "properties": { "name": "La Newyorkina", "class": "restaurant", "icon": "dog" }, "geometry": { "type": "Point", "coordinates": [ -73.991488, 40.729895 ] } },
{ "type": "Feature", "properties": { "name": "Family Altagracia Caribbean Cuisine", "class": "restaurant", "icon": "dog" }, "geometry": { "type": "Point", "coordinates": [ -73.923722148886085, 40.644947317737 ] } },
{ "type": "Feature", "properties": { "name": "Panda Bubble Tea", "class": "restaurant", "icon": "dog" }, "geometry": { "type": "Point", "coordinates": [ -73.96577, 40.76579 ] } },
{ "type": "Feature", "properties": { "name": "by CHLOE", "class": "restaurant", "icon": "dog" }, "geometry": { "type": "Point", "coordinates": [ -74.001021, 40.729219 ] } },
{ "type": "Feature", "properties": { "name": "BKT", "class": "restaurant", "icon": "dog" }, "geometry": { "type": "Point", "coordinates": [ -73.94929, 40.67775 ] } },
{ "type": "Feature", "properties": { "name": "101 Wilson", "class": "restaurant", "icon": "dog" }, "geometry": { "type": "Point", "coordinates": [ -73.927138812985788, 40.7016106297459 ] } },
{ "type": "Feature", "properties": { "name": "Extra Fancy", "class": "restaurant", "icon": "dog" }, "geometry": { "type": "Point", "coordinates": [ -73.957917457069897, 40.714464341919104 ] } },
{ "type": "Feature", "properties": { "name": "Grindhaus", "class": "restaurant", "icon": "dog" }, "geometry": { "type": "Point", "coordinates": [ -74.010527599999975, 40.6791767 ] } },
{ "type": "Feature", "properties": { "name": "The Bean", "class": "restaurant", "icon": "dog" }, "geometry": { "type": "Point", "coordinates": [ -73.990938602634003, 40.733047218488004 ] } },
{ "type": "Feature", "properties": { "name": "SoBol Astoria", "class": "restaurant", "icon": "dog" }, "geometry": { "type": "Point", "coordinates": [ -73.90894, 40.77455 ] } },
{ "type": "Feature", "properties": { "name": "Piccoli Togo Windsor Terrace", "class": "restaurant", "icon": "dog" }, "geometry": { "type": "Point", "coordinates": [ -73.973477, 40.654819 ] } },
{ "type": "Feature", "properties": { "name": "Shake Shack", "class": "restaurant", "icon": "dog" }, "geometry": { "type": "Point", "coordinates": [ -74.014799, 40.715283 ] } },
{ "type": "Feature", "properties": { "name": "Werkstatt", "class": "restaurant", "icon": "dog" }, "geometry": { "type": "Point", "coordinates": [ -73.970234, 40.645298 ] } },
{ "type": "Feature", "properties": { "name": "Make Believe", "class": "restaurant", "icon": "dog" }, "geometry": { "type": "Point", "coordinates": [ -73.98851, 40.72209 ] } },
{ "type": "Feature", "properties": { "name": "Gata Golosa Astoria", "class": "restaurant", "icon": "dog" }, "geometry": { "type": "Point", "coordinates": [ -73.925725, 40.761992 ] } },
{ "type": "Feature", "properties": { "name": "Mixtape Bushwick", "class": "restaurant", "icon": "dog" }, "geometry": { "type": "Point", "coordinates": [ -73.9140196, 40.6994942 ] } },
{ "type": "Feature", "properties": { "name": "sweetgreen", "class": "restaurant", "icon": "dog" }, "geometry": { "type": "Point", "coordinates": [ -73.997251165209903, 40.721063542833598 ] } },
{ "type": "Feature", "properties": { "name": "The Breakfast Shack", "class": "restaurant", "icon": "dog" }, "geometry": { "type": "Point", "coordinates": [ -73.922470942456087, 40.7671641442994 ] } },
{ "type": "Feature", "properties": { "name": "Goodfellas Pizzeria of LIC", "class": "restaurant", "icon": "dog" }, "geometry": { "type": "Point", "coordinates": [ -73.93716, 40.75334 ] } },
{ "type": "Feature", "properties": { "name": "Sweets by CHLOE", "class": "restaurant", "icon": "dog" }, "geometry": { "type": "Point", "coordinates": [ -74.00098, 40.729191 ] } },
{ "type": "Feature", "properties": { "name": "Cherin", "class": "restaurant", "icon": "dog" }, "geometry": { "type": "Point", "coordinates": [ -73.988077900000022, 40.7269931 ] } },
{ "type": "Feature", "properties": { "name": "2 Bros Pizza", "class": "restaurant", "icon": "dog" }, "geometry": { "type": "Point", "coordinates": [ -73.992004, 40.754745 ] } },
{ "type": "Feature", "properties": { "name": "Sakura Of Japan", "class": "restaurant", "icon": "dog" }, "geometry": { "type": "Point", "coordinates": [ -73.99129, 40.75472 ] } },
{ "type": "Feature", "properties": { "name": "ViVi Bubble Tea", "class": "restaurant", "icon": "dog" }, "geometry": { "type": "Point", "coordinates": [ -73.986229, 40.732567 ] } },
{ "type": "Feature", "properties": { "name": "Indian Tasty Halal Food", "class": "restaurant", "icon": "dog" }, "geometry": { "type": "Point", "coordinates": [ -73.983151, 40.755969 ] } },
{ "type": "Feature", "properties": { "name": "il Miglio Brick Oven Pizzeria & Italian Restaurant", "class": "restaurant", "icon": "dog" }, "geometry": { "type": "Point", "coordinates": [ -73.9396, 40.7612 ] } },
{ "type": "Feature", "properties": { "name": "Sushi Inoue", "class": "restaurant", "icon": "dog" }, "geometry": { "type": "Point", "coordinates": [ -73.943642, 40.8104436 ] } },
{ "type": "Feature", "properties": { "name": "Lavatera Grill", "class": "restaurant", "icon": "dog" }, "geometry": { "type": "Point", "coordinates": [ -73.99072, 40.69126 ] } },
{ "type": "Feature", "properties": { "name": "Three Seat Espresso", "class": "restaurant", "icon": "dog" }, "geometry": { "type": "Point", "coordinates": [ -73.982962598147594, 40.7270545164507 ] } },
{ "type": "Feature", "properties": { "name": "Great China", "class": "restaurant", "icon": "dog" }, "geometry": { "type": "Point", "coordinates": [ -74.01298, 40.64236 ] } },
{ "type": "Feature", "properties": { "name": "Wurst Case", "class": "restaurant", "icon": "dog" }, "geometry": { "type": "Point", "coordinates": [ -73.958959343427097, 40.718445572148902 ] } },
{ "type": "Feature", "properties": { "name": "Island Spice Grill", "class": "restaurant", "icon": "dog" }, "geometry": { "type": "Point", "coordinates": [ -73.99012, 40.7378 ] } },
{ "type": "Feature", "properties": { "name": "Khe-Yo", "class": "restaurant", "icon": "dog" }, "geometry": { "type": "Point", "coordinates": [ -74.008587, 40.716906 ] } },
{ "type": "Feature", "properties": { "name": "Cocoa Grinder", "class": "restaurant", "icon": "dog" }, "geometry": { "type": "Point", "coordinates": [ -73.9524, 40.68067 ] } },
{ "type": "Feature", "properties": { "name": "La Panineria", "class": "restaurant", "icon": "dog" }, "geometry": { "type": "Point", "coordinates": [ -73.996753107409702, 40.732487618623097 ] } },
{ "type": "Feature", "properties": { "name": "Juquila Kitchen and Bar", "class": "restaurant", "icon": "dog" }, "geometry": { "type": "Point", "coordinates": [ -73.93436, 40.7532 ] } },
{ "type": "Feature", "properties": { "name": "PokéWave", "class": "restaurant", "icon": "dog" }, "geometry": { "type": "Point", "coordinates": [ -73.921752, 40.760478 ] } },
{ "type": "Feature", "properties": { "name": "The Bklyn Juice Bar", "class": "restaurant", "icon": "dog" }, "geometry": { "type": "Point", "coordinates": [ -73.888273, 40.677333 ] } },
{ "type": "Feature", "properties": { "name": "8th Ave Gourmet Deli", "class": "restaurant", "icon": "dog" }, "geometry": { "type": "Point", "coordinates": [ -74.00113, 40.74134 ] } },
{ "type": "Feature", "properties": { "name": "The Organic Grill", "class": "restaurant", "icon": "dog" }, "geometry": { "type": "Point", "coordinates": [ -73.98578, 40.72737 ] } },
{ "type": "Feature", "properties": { "name": "Bagels By Day, Tacos By Night", "class": "restaurant", "icon": "dog" }, "geometry": { "type": "Point", "coordinates": [ -74.0765, 40.62795 ] } },
{ "type": "Feature", "properties": { "name": "Tropical Grill & Restaurant", "class": "restaurant", "icon": "dog" }, "geometry": { "type": "Point", "coordinates": [ -73.9469699, 40.81037 ] } },
{ "type": "Feature", "properties": { "name": "Yaya Tea Garden", "class": "restaurant", "icon": "dog" }, "geometry": { "type": "Point", "coordinates": [ -73.98369, 40.7384 ] } },
{ "type": "Feature", "properties": { "name": "Bareburger", "class": "restaurant", "icon": "dog" }, "geometry": { "type": "Point", "coordinates": [ -73.921073, 40.763452 ] } },
{ "type": "Feature", "properties": { "name": "Planted Cafe", "class": "restaurant", "icon": "dog" }, "geometry": { "type": "Point", "coordinates": [ -73.99452, 40.68053 ] } },
{ "type": "Feature", "properties": { "name": "Beach Cafe", "class": "restaurant", "icon": "dog" }, "geometry": { "type": "Point", "coordinates": [ -73.9592185, 40.7672686 ] } },
{ "type": "Feature", "properties": { "name": "Empire Gyro", "class": "restaurant", "icon": "dog" }, "geometry": { "type": "Point", "coordinates": [ -73.98856, 40.72246 ] } },
{ "type": "Feature", "properties": { "name": "Kwik Gourmet", "class": "restaurant", "icon": "dog" }, "geometry": { "type": "Point", "coordinates": [ -73.97106, 40.75332 ] } },
{ "type": "Feature", "properties": { "name": "GrillShack", "class": "restaurant", "icon": "dog" }, "geometry": { "type": "Point", "coordinates": [ -73.70831, 40.84169 ] } },
{ "type": "Feature", "properties": { "name": "Juicy Lucy Juice Bar", "class": "restaurant", "icon": "dog" }, "geometry": { "type": "Point", "coordinates": [ -73.9843, 40.72526 ] } },
{ "type": "Feature", "properties": { "name": "Shake Shack", "class": "restaurant", "icon": "dog" }, "geometry": { "type": "Point", "coordinates": [ -73.98815019045, 40.741400019723294 ] } },
{ "type": "Feature", "properties": { "name": "Tartine", "class": "restaurant", "icon": "dog" }, "geometry": { "type": "Point", "coordinates": [ -74.00344, 40.7362899 ] } },
{ "type": "Feature", "properties": { "name": "Renegades of Sunset", "class": "restaurant", "icon": "dog" }, "geometry": { "type": "Point", "coordinates": [ -74.007526, 40.655908 ] } },
{ "type": "Feature", "properties": { "name": "Pop's Espresso Bar", "class": "restaurant", "icon": "dog" }, "geometry": { "type": "Point", "coordinates": [ -73.773519499999978, 40.9143324 ] } },
{ "type": "Feature", "properties": { "name": "PEQUE Vinos + Tapas Bar & Restaurant", "class": "restaurant", "icon": "dog" }, "geometry": { "type": "Point", "coordinates": [ -73.94064, 40.82248 ] } },
{ "type": "Feature", "properties": { "name": "Freshly Made", "class": "restaurant", "icon": "dog" }, "geometry": { "type": "Point", "coordinates": [ -73.927753, 40.811033 ] } },
{ "type": "Feature", "properties": { "name": "Cosmic Diner", "class": "restaurant", "icon": "dog" }, "geometry": { "type": "Point", "coordinates": [ -73.984912908299705, 40.763585046257603 ] } },
{ "type": "Feature", "properties": { "name": "Natura Cafe", "class": "restaurant", "icon": "dog" }, "geometry": { "type": "Point", "coordinates": [ -74.0038, 40.74213 ] } },
{ "type": "Feature", "properties": { "name": "Broadway Cafe", "class": "restaurant", "icon": "dog" }, "geometry": { "type": "Point", "coordinates": [ -73.9176897, 40.7586205 ] } },
{ "type": "Feature", "properties": { "name": "Bella Pizza", "class": "restaurant", "icon": "dog" }, "geometry": { "type": "Point", "coordinates": [ -73.90197, 40.86291 ] } },
{ "type": "Feature", "properties": { "name": "Tue Thai Restaurant", "class": "restaurant", "icon": "dog" }, "geometry": { "type": "Point", "coordinates": [ -73.999799900000014, 40.73387 ] } },
{ "type": "Feature", "properties": { "name": "Marcy & Myrtle Cafe", "class": "restaurant", "icon": "dog" }, "geometry": { "type": "Point", "coordinates": [ -73.9578072416883, 40.720694939390398 ] } },
{ "type": "Feature", "properties": { "name": "Off The Hook Raw Bar & Grill", "class": "restaurant", "icon": "dog" }, "geometry": { "type": "Point", "coordinates": [ -73.918014, 40.767167 ] } },
{ "type": "Feature", "properties": { "name": "Ourika", "class": "restaurant", "icon": "dog" }, "geometry": { "type": "Point", "coordinates": [ -73.98468, 40.72008 ] } },
{ "type": "Feature", "properties": { "name": "Fefo Food", "class": "restaurant", "icon": "dog" }, "geometry": { "type": "Point", "coordinates": [ -73.996299, 40.729396 ] } },
{ "type": "Feature", "properties": { "name": "Vittles Cafe", "class": "restaurant", "icon": "dog" }, "geometry": { "type": "Point", "coordinates": [ -73.957006, 40.7278779 ] } },
{ "type": "Feature", "properties": { "name": "JW Real Polish Delicatessen", "class": "restaurant", "icon": "dog" }, "geometry": { "type": "Point", "coordinates": [ -73.97701, 40.64396 ] } },
{ "type": "Feature", "properties": { "name": "Monika's Cafe Bar", "class": "restaurant", "icon": "dog" }, "geometry": { "type": "Point", "coordinates": [ -73.9233269, 40.7580193 ] } },
{ "type": "Feature", "properties": { "name": "Etto Espresso Bar", "class": "restaurant", "icon": "dog" }, "geometry": { "type": "Point", "coordinates": [ -73.94056, 40.74837 ] } },
{ "type": "Feature", "properties": { "name": "Falafel Tarboosh", "class": "restaurant", "icon": "dog" }, "geometry": { "type": "Point", "coordinates": [ -73.9478, 40.82468 ] } },
{ "type": "Feature", "properties": { "name": "Nuchas - Times Square", "class": "restaurant", "icon": "dog" }, "geometry": { "type": "Point", "coordinates": [ -73.985142, 40.759093 ] } },
{ "type": "Feature", "properties": { "name": "Chimu Bistro", "class": "restaurant", "icon": "dog" }, "geometry": { "type": "Point", "coordinates": [ -73.95144, 40.714903 ] } },
{ "type": "Feature", "properties": { "name": "Pine Box Rock Shop", "class": "restaurant", "icon": "dog" }, "geometry": { "type": "Point", "coordinates": [ -73.93267, 40.70528 ] } },
{ "type": "Feature", "properties": { "name": "A Canaan", "class": "restaurant", "icon": "dog" }, "geometry": { "type": "Point", "coordinates": [ -73.99231, 40.74736 ] } },
{ "type": "Feature", "properties": { "name": "Los Milagros Deli Grocery", "class": "restaurant", "icon": "dog" }, "geometry": { "type": "Point", "coordinates": [ -73.91635, 40.70265 ] } },
{ "type": "Feature", "properties": { "name": "Buds & Beans Café", "class": "restaurant", "icon": "dog" }, "geometry": { "type": "Point", "coordinates": [ -73.96829, 40.67981 ] } },
{ "type": "Feature", "properties": { "name": "Olive Deli & Salad Bar", "class": "restaurant", "icon": "dog" }, "geometry": { "type": "Point", "coordinates": [ -73.938194299999978, 40.8035736 ] } },
{ "type": "Feature", "properties": { "name": "Savory Thai", "class": "restaurant", "icon": "dog" }, "geometry": { "type": "Point", "coordinates": [ -73.95554, 40.71395 ] } },
{ "type": "Feature", "properties": { "name": "The Deck", "class": "restaurant", "icon": "dog" }, "geometry": { "type": "Point", "coordinates": [ -73.97595, 40.65304 ] } },
{ "type": "Feature", "properties": { "name": "Subway Restaurants", "class": "restaurant", "icon": "dog" }, "geometry": { "type": "Point", "coordinates": [ -73.98707, 40.75304 ] } },
{ "type": "Feature", "properties": { "name": "Crossbar Café", "class": "restaurant", "icon": "dog" }, "geometry": { "type": "Point", "coordinates": [ -73.922199, 40.7561262 ] } },
{ "type": "Feature", "properties": { "name": "LIC Corner Cafe", "class": "restaurant", "icon": "dog" }, "geometry": { "type": "Point", "coordinates": [ -73.94761, 40.746744 ] } },
{ "type": "Feature", "properties": { "name": "The Cobra Club", "class": "restaurant", "icon": "dog" }, "geometry": { "type": "Point", "coordinates": [ -73.923338055610699, 40.7067259127396 ] } },
{ "type": "Feature", "properties": { "name": "Anton's Dumplings", "class": "restaurant", "icon": "dog" }, "geometry": { "type": "Point", "coordinates": [ -74.001358700000026, 40.7311701 ] } },
{ "type": "Feature", "properties": { "name": "Sorelle's Pizza", "class": "restaurant", "icon": "dog" }, "geometry": { "type": "Point", "coordinates": [ -73.7792967, 40.908376700000012 ] } },
{ "type": "Feature", "properties": { "name": "Fitrition", "class": "restaurant", "icon": "dog" }, "geometry": { "type": "Point", "coordinates": [ -73.915193822619415, 40.763574357045002 ] } },
{ "type": "Feature", "properties": { "name": "Le Colonial", "class": "restaurant", "icon": "dog" }, "geometry": { "type": "Point", "coordinates": [ -73.96833, 40.7609 ] } },
{ "type": "Feature", "properties": { "name": "Tacos Lupita", "class": "restaurant", "icon": "dog" }, "geometry": { "type": "Point", "coordinates": [ -73.990037217736202, 40.618996471166611 ] } },
{ "type": "Feature", "properties": { "name": "Vegan Shop Up", "class": "restaurant", "icon": "dog" }, "geometry": { "type": "Point", "coordinates": [ -73.932806474792599, 40.705468597594489 ] } },
{ "type": "Feature", "properties": { "name": "Jad Jaan Thai Vietnamese", "class": "restaurant", "icon": "dog" }, "geometry": { "type": "Point", "coordinates": [ -73.93768, 40.84124 ] } },
{ "type": "Feature", "properties": { "name": "Cafe Du Soleil", "class": "restaurant", "icon": "dog" }, "geometry": { "type": "Point", "coordinates": [ -73.9682123, 40.8000739 ] } },
{ "type": "Feature", "properties": { "name": "Bleecker's Finest Deli", "class": "restaurant", "icon": "dog" }, "geometry": { "type": "Point", "coordinates": [ -74.00048, 40.72894 ] } },
{ "type": "Feature", "properties": { "name": "Le Pain Quotidien", "class": "restaurant", "icon": "dog" }, "geometry": { "type": "Point", "coordinates": [ -73.979585697036995, 40.766333047109498 ] } },
{ "type": "Feature", "properties": { "name": "Shake Shack", "class": "restaurant", "icon": "dog" }, "geometry": { "type": "Point", "coordinates": [ -73.9939538, 40.7030151 ] } },
{ "type": "Feature", "properties": { "name": "Family First Deli", "class": "restaurant", "icon": "dog" }, "geometry": { "type": "Point", "coordinates": [ -73.9390707, 40.7910315 ] } },
{ "type": "Feature", "properties": { "name": "Cocoa Grinder", "class": "restaurant", "icon": "dog" }, "geometry": { "type": "Point", "coordinates": [ -74.030731053239705, 40.624123693960712 ] } },
{ "type": "Feature", "properties": { "name": "Fradei Italian Bistro", "class": "restaurant", "icon": "dog" }, "geometry": { "type": "Point", "coordinates": [ -73.974191, 40.686579 ] } },
{ "type": "Feature", "properties": { "name": "Hummus Market", "class": "restaurant", "icon": "dog" }, "geometry": { "type": "Point", "coordinates": [ -73.944839, 40.715385 ] } },
{ "type": "Feature", "properties": { "name": "La Fonda Del Sol", "class": "restaurant", "icon": "dog" }, "geometry": { "type": "Point", "coordinates": [ -73.977152720376594, 40.753418204198702 ] } },
{ "type": "Feature", "properties": { "name": "Gilligan's at Soho Grand", "class": "restaurant", "icon": "dog" }, "geometry": { "type": "Point", "coordinates": [ -74.004306, 40.722017 ] } },
{ "type": "Feature", "properties": { "name": "Dale View Biscuits and Beer", "class": "restaurant", "icon": "dog" }, "geometry": { "type": "Point", "coordinates": [ -73.95064, 40.65893 ] } },
{ "type": "Feature", "properties": { "name": "King Souvlaki", "class": "restaurant", "icon": "dog" }, "geometry": { "type": "Point", "coordinates": [ -73.923547267913804, 40.764323836340203 ] } },
{ "type": "Feature", "properties": { "name": "Gourmet Bagel", "class": "restaurant", "icon": "dog" }, "geometry": { "type": "Point", "coordinates": [ -73.965492, 40.766319 ] } },
{ "type": "Feature", "properties": { "name": "Q & N Foods", "class": "restaurant", "icon": "dog" }, "geometry": { "type": "Point", "coordinates": [ -73.93831, 40.805066 ] } },
{ "type": "Feature", "properties": { "name": "Du's Donuts & Coffee", "class": "restaurant", "icon": "dog" }, "geometry": { "type": "Point", "coordinates": [ -73.9573027, 40.7221862 ] } },
{ "type": "Feature", "properties": { "name": "Salumeria Antichi Sapori", "class": "restaurant", "icon": "dog" }, "geometry": { "type": "Point", "coordinates": [ -73.92011, 40.77097 ] } },
{ "type": "Feature", "properties": { "name": "The Juiice Box", "class": "restaurant", "icon": "dog" }, "geometry": { "type": "Point", "coordinates": [ -73.92681, 40.6941 ] } },
{ "type": "Feature", "properties": { "name": "Papelon con Limon", "class": "restaurant", "icon": "dog" }, "geometry": { "type": "Point", "coordinates": [ -73.93026, 40.693953 ] } },
{ "type": "Feature", "properties": { "name": "Areppas", "class": "restaurant", "icon": "dog" }, "geometry": { "type": "Point", "coordinates": [ -73.985479, 40.740077 ] } },
{ "type": "Feature", "properties": { "name": "PLG Coffee House and Tavern", "class": "restaurant", "icon": "dog" }, "geometry": { "type": "Point", "coordinates": [ -73.953380118978501, 40.659859669133702 ] } },
{ "type": "Feature", "properties": { "name": "Sotto Voce", "class": "restaurant", "icon": "dog" }, "geometry": { "type": "Point", "coordinates": [ -73.978744506835909, 40.669898986816399 ] } },
{ "type": "Feature", "properties": { "name": "Boat Haus", "class": "restaurant", "icon": "dog" }, "geometry": { "type": "Point", "coordinates": [ -74.002517, 40.641868 ] } },
{ "type": "Feature", "properties": { "name": "Sandwich Girl", "class": "restaurant", "icon": "dog" }, "geometry": { "type": "Point", "coordinates": [ -73.920555114746094, 40.867835998535206 ] } },
{ "type": "Feature", "properties": { "name": "Brooklyn Whiskers Bakery", "class": "restaurant", "icon": "dog" }, "geometry": { "type": "Point", "coordinates": [ -73.932166400000014, 40.695387 ] } },
{ "type": "Feature", "properties": { "name": "Linda Asian Kitchen", "class": "restaurant", "icon": "dog" }, "geometry": { "type": "Point", "coordinates": [ -73.940589, 40.692363 ] } },
{ "type": "Feature", "properties": { "name": "Strawberry Deli", "class": "restaurant", "icon": "dog" }, "geometry": { "type": "Point", "coordinates": [ -74.004936, 40.740479 ] } },
{ "type": "Feature", "properties": { "name": "Rib In a Cup", "class": "restaurant", "icon": "dog" }, "geometry": { "type": "Point", "coordinates": [ -73.935619245686212, 40.743016013919103 ] } },
{ "type": "Feature", "properties": { "name": "Chicken Vs Lamb", "class": "restaurant", "icon": "dog" }, "geometry": { "type": "Point", "coordinates": [ -73.845446217529002, 40.848976204089212 ] } },
{ "type": "Feature", "properties": { "name": "Mediterraneo Pizza", "class": "restaurant", "icon": "dog" }, "geometry": { "type": "Point", "coordinates": [ -73.93002, 40.85472 ] } },
{ "type": "Feature", "properties": { "name": "Green Juice Cafe", "class": "restaurant", "icon": "dog" }, "geometry": { "type": "Point", "coordinates": [ -73.9346599, 40.85188 ] } },
{ "type": "Feature", "properties": { "name": "BarKogi Korean Fried Chicken", "class": "restaurant", "icon": "dog" }, "geometry": { "type": "Point", "coordinates": [ -73.9684579, 40.7554222 ] } },
{ "type": "Feature", "properties": { "name": "Tzatziki Greek Grill", "class": "restaurant", "icon": "dog" }, "geometry": { "type": "Point", "coordinates": [ -73.77356, 40.91444 ] } },
{ "type": "Feature", "properties": { "name": "Pilot", "class": "restaurant", "icon": "dog" }, "geometry": { "type": "Point", "coordinates": [ -74.001689, 40.69323 ] } },
{ "type": "Feature", "properties": { "name": "Kennedy's Chicken & Grill", "class": "restaurant", "icon": "dog" }, "geometry": { "type": "Point", "coordinates": [ -73.930604513897705, 40.853264249296402 ] } },
{ "type": "Feature", "properties": { "name": "Yankee Twin Eatery Bar", "class": "restaurant", "icon": "dog" }, "geometry": { "type": "Point", "coordinates": [ -73.92618, 40.82712 ] } },
{ "type": "Feature", "properties": { "name": "Willy Deli Grocery", "class": "restaurant", "icon": "dog" }, "geometry": { "type": "Point", "coordinates": [ -73.99883, 40.67662 ] } },
{ "type": "Feature", "properties": { "name": "Jai Dee Restaurant", "class": "restaurant", "icon": "dog" }, "geometry": { "type": "Point", "coordinates": [ -73.9840793609619, 40.664054259301402 ] } },
{ "type": "Feature", "properties": { "name": "Casa Doro Deli", "class": "restaurant", "icon": "dog" }, "geometry": { "type": "Point", "coordinates": [ -73.843468576669707, 40.862431079149204 ] } },
{ "type": "Feature", "properties": { "name": "Mazza & More", "class": "restaurant", "icon": "dog" }, "geometry": { "type": "Point", "coordinates": [ -73.9709791, 40.616626700000012 ] } },
{ "type": "Feature", "properties": { "name": "Gyro King Crown Fried Chicken", "class": "restaurant", "icon": "dog" }, "geometry": { "type": "Point", "coordinates": [ -73.87077, 40.67898 ] } },
{ "type": "Feature", "properties": { "name": "La Puerta Roja", "class": "restaurant", "icon": "dog" }, "geometry": { "type": "Point", "coordinates": [ -73.96716, 40.63982 ] } },
{ "type": "Feature", "properties": { "name": "Gruit", "class": "restaurant", "icon": "dog" }, "geometry": { "type": "Point", "coordinates": [ -73.9536466271922, 40.663465879123002 ] } },
{ "type": "Feature", "properties": { "name": "Happy Gathering", "class": "restaurant", "icon": "dog" }, "geometry": { "type": "Point", "coordinates": [ -73.92601, 40.7589 ] } },
{ "type": "Feature", "properties": { "name": "Paesano's Pizzeria", "class": "restaurant", "icon": "dog" }, "geometry": { "type": "Point", "coordinates": [ -74.1326, 40.612 ] } },
{ "type": "Feature", "properties": { "name": "J's Wong", "class": "restaurant", "icon": "dog" }, "geometry": { "type": "Point", "coordinates": [ -73.95661, 40.67402 ] } },
{ "type": "Feature", "properties": { "name": "The Canteen", "class": "restaurant", "icon": "dog" }, "geometry": { "type": "Point", "coordinates": [ -73.946801349520697, 40.625318761645701 ] } },
{ "type": "Feature", "properties": { "name": "Tornado Crepe", "class": "restaurant", "icon": "dog" }, "geometry": { "type": "Point", "coordinates": [ -73.923162706196294, 40.701784884780999 ] } },
{ "type": "Feature", "properties": { "name": "Chimi Monumental", "class": "restaurant", "icon": "dog" }, "geometry": { "type": "Point", "coordinates": [ -73.883698, 40.680478 ] } },
{ "type": "Feature", "properties": { "name": "Taste of China", "class": "restaurant", "icon": "dog" }, "geometry": { "type": "Point", "coordinates": [ -74.009174, 40.618475 ] } },
{ "type": "Feature", "properties": { "name": "Mi Familia Tacostand", "class": "restaurant", "icon": "dog" }, "geometry": { "type": "Point", "coordinates": [ -73.9890682697296, 40.67010556385609 ] } },
{ "type": "Feature", "properties": { "name": "Circle Pizza", "class": "restaurant", "icon": "dog" }, "geometry": { "type": "Point", "coordinates": [ -73.8610747, 40.8324595 ] } },
{ "type": "Feature", "properties": { "name": "Wendy's", "class": "restaurant", "icon": "dog" }, "geometry": { "type": "Point", "coordinates": [ -74.0130246, 40.701009 ] } },
{ "type": "Feature", "properties": { "name": "TSQ MKT", "class": "restaurant", "icon": "dog" }, "geometry": { "type": "Point", "coordinates": [ -73.99316, 40.75883 ] } },
{ "type": "Feature", "properties": { "name": "Cheech A' Cini's Truckin Trattoria", "class": "restaurant", "icon": "dog" }, "geometry": { "type": "Point", "coordinates": [ -74.1703788, 40.6286666 ] } },
{ "type": "Feature", "properties": { "name": "Mussels & More", "class": "restaurant", "icon": "dog" }, "geometry": { "type": "Point", "coordinates": [ -74.0239, 40.625486 ] } },
{ "type": "Feature", "properties": { "name": "Don Panchito Deli Grocery", "class": "restaurant", "icon": "dog" }, "geometry": { "type": "Point", "coordinates": [ -73.93858, 40.79765 ] } },
{ "type": "Feature", "properties": { "name": "Calabria", "class": "restaurant", "icon": "dog" }, "geometry": { "type": "Point", "coordinates": [ -73.94238, 40.67043 ] } },
{ "type": "Feature", "properties": { "name": "Ambrosia Elixirs", "class": "restaurant", "icon": "dog" }, "geometry": { "type": "Point", "coordinates": [ -73.930121, 40.699544 ] } },
{ "type": "Feature", "properties": { "name": "Crown Fried Chicken", "class": "restaurant", "icon": "dog" }, "geometry": { "type": "Point", "coordinates": [ -73.908309936523409, 40.658962249755895 ] } },
{ "type": "Feature", "properties": { "name": "Krave Shack", "class": "restaurant", "icon": "dog" }, "geometry": { "type": "Point", "coordinates": [ -73.71277, 40.73606 ] } },
{ "type": "Feature", "properties": { "name": "Terra Cafe", "class": "restaurant", "icon": "dog" }, "geometry": { "type": "Point", "coordinates": [ -73.95178, 40.5856 ] } },
{ "type": "Feature", "properties": { "name": "V.I.Pizza", "class": "restaurant", "icon": "dog" }, "geometry": { "type": "Point", "coordinates": [ -73.68868, 40.72152 ] } },
{ "type": "Feature", "properties": { "name": "Wild Culture", "class": "restaurant", "icon": "dog" }, "geometry": { "type": "Point", "coordinates": [ -73.882382, 40.996099 ] } },
{ "type": "Feature", "properties": { "name": "DVine Pie", "class": "restaurant", "icon": "dog" }, "geometry": { "type": "Point", "coordinates": [ -73.91585, 41.03938 ] } },
{ "type": "Feature", "properties": { "name": "The Dog Den", "class": "restaurant", "icon": "dog" }, "geometry": { "type": "Point", "coordinates": [ -73.7751991, 41.0318241 ] } },
{ "type": "Feature", "properties": { "name": "McCants Cafe", "class": "restaurant", "icon": "dog" }, "geometry": { "type": "Point", "coordinates": [ -73.7730517, 41.0300922 ] } },
{ "type": "Feature", "properties": { "name": "Inn at Great Neck, BW Premier Collection", "class": "restaurant", "icon": "dog" }, "geometry": { "type": "Point", "coordinates": [ -73.729189038276701, 40.7863295697179 ] } },
{ "type": "Feature", "properties": { "name": "NY Bone Broth And Soup", "class": "restaurant", "icon": "dog" }, "geometry": { "type": "Point", "coordinates": [ -73.682870512303197, 40.697116898624699 ] } },
{ "type": "Feature", "properties": { "name": "The Filling Station", "class": "restaurant", "icon": "dog" }, "geometry": { "type": "Point", "coordinates": [ -73.91302, 41.01446 ] } },
{ "type": "Feature", "properties": { "name": "Gina Marie's Trattoria", "class": "restaurant", "icon": "dog" }, "geometry": { "type": "Point", "coordinates": [ -73.836062733037096, 40.925515475333206 ] } },
{ "type": "Feature", "properties": { "name": "The 9W Market", "class": "restaurant", "icon": "dog" }, "geometry": { "type": "Point", "coordinates": [ -73.91302, 41.01446 ] } },
{ "type": "Feature", "properties": { "name": "Quenas Restaurant", "class": "restaurant", "icon": "dog" }, "geometry": { "type": "Point", "coordinates": [ -73.719184, 40.964283 ] } },
{ "type": "Feature", "properties": { "name": "Piermont Bike", "class": "restaurant", "icon": "dog" }, "geometry": { "type": "Point", "coordinates": [ -73.914772599999978, 41.041318100000012 ] } },
{ "type": "Feature", "properties": { "name": "WOW Halal food", "class": "restaurant", "icon": "dog" }, "geometry": { "type": "Point", "coordinates": [ -73.7195593, 40.6890493 ] } },
{ "type": "Feature", "properties": { "name": "Hasting's Deli & Market", "class": "restaurant", "icon": "dog" }, "geometry": { "type": "Point", "coordinates": [ -73.8819519, 40.995841600000013 ] } },
{ "type": "Feature", "properties": { "name": "Piece A Cake", "class": "restaurant", "icon": "dog" }, "geometry": { "type": "Point", "coordinates": [ -74.114797067545297, 40.573475532558099 ] } },
{ "type": "Feature", "properties": { "name": "Gata Thai Kitchen", "class": "restaurant", "icon": "dog" }, "geometry": { "type": "Point", "coordinates": [ -73.93699, 40.59893 ] } },
{ "type": "Feature", "properties": { "name": "Polpettina", "class": "restaurant", "icon": "dog" }, "geometry": { "type": "Point", "coordinates": [ -73.7524527, 40.9284407 ] } },
{ "type": "Feature", "properties": { "name": "Hubba's", "class": "restaurant", "icon": "dog" }, "geometry": { "type": "Point", "coordinates": [ -73.663329418047098, 41.000907210473301 ] } },
{ "type": "Feature", "properties": { "name": "Walter's Hot Dogs", "class": "restaurant", "icon": "dog" }, "geometry": { "type": "Point", "coordinates": [ -73.74697, 40.9431 ] } },
{ "type": "Feature", "properties": { "name": "Antoinette's Patisserie", "class": "restaurant", "icon": "dog" }, "geometry": { "type": "Point", "coordinates": [ -73.8835733, 40.990602 ] } },
{ "type": "Feature", "properties": { "name": "Scalini Osteria", "class": "restaurant", "icon": "dog" }, "geometry": { "type": "Point", "coordinates": [ -73.8332, 40.94075 ] } },
{ "type": "Feature", "properties": { "name": "Highridge Fishery Seafood", "class": "restaurant", "icon": "dog" }, "geometry": { "type": "Point", "coordinates": [ -73.8411897, 40.9610126 ] } },
{ "type": "Feature", "properties": { "name": "Wood & Fire", "class": "restaurant", "icon": "dog" }, "geometry": { "type": "Point", "coordinates": [ -73.806691, 40.977687 ] } },
{ "type": "Feature", "properties": { "name": "Argana Restaurant & Bar", "class": "restaurant", "icon": "dog" }, "geometry": { "type": "Point", "coordinates": [ -73.658749, 41.005802 ] } },
{ "type": "Feature", "properties": { "name": "Greenlife", "class": "restaurant", "icon": "dog" }, "geometry": { "type": "Point", "coordinates": [ -73.734626770019503, 40.950557708740199 ] } },
{ "type": "Feature", "properties": { "name": "Milk N Cookies", "class": "restaurant", "icon": "dog" }, "geometry": { "type": "Point", "coordinates": [ -73.7347533, 40.9506853 ] } },
{ "type": "Feature", "properties": { "name": "Mistura Peruvian Fine Cuisine", "class": "restaurant", "icon": "dog" }, "geometry": { "type": "Point", "coordinates": [ -73.7657932, 41.0299804 ] } },
{ "type": "Feature", "properties": { "name": "Nesto's Pizza & Deli", "class": "restaurant", "icon": "dog" }, "geometry": { "type": "Point", "coordinates": [ -73.78133, 41.03843 ] } },
{ "type": "Feature", "properties": { "name": "Alamo Drafthouse Cinema Yonkers", "class": "restaurant", "icon": "dog" }, "geometry": { "type": "Point", "coordinates": [ -73.8256401, 40.9857567 ] } },
{ "type": "Feature", "properties": { "name": "Mary Ann's", "class": "restaurant", "icon": "dog" }, "geometry": { "type": "Point", "coordinates": [ -73.662986755371094, 41.001731042091606 ] } },
{ "type": "Feature", "properties": { "name": "Pronto Pizza", "class": "restaurant", "icon": "dog" }, "geometry": { "type": "Point", "coordinates": [ -74.1111, 40.57147 ] } },
{ "type": "Feature", "properties": { "name": "Bleecker's Finest Deli", "class": "restaurant", "icon": "dog" }, "geometry": { "type": "Point", "coordinates": [ -74.00048, 40.72894 ] } }
]
}
