{
"type": "FeatureCollection",
"features": [
{ "type": "Feature", "properties": { "name": "Worth Street Veterinary Center", "class": "service_vet", "icon": "vet" }, "geometry": { "type": "Point", "coordinates": [ -74.0057, 40.71694 ] } },
{ "type": "Feature", "properties": { "name": "The Neighborhood Vet", "class": "service_vet", "icon": "vet" }, "geometry": { "type": "Point", "coordinates": [ -73.930069729685798, 40.694119720286999 ] } },
{ "type": "Feature", "properties": { "name": "Brooklyn Heights Veterinary Hospital", "class": "service_vet", "icon": "vet" }, "geometry": { "type": "Point", "coordinates": [ -73.9935177, 40.6998975 ] } },
{ "type": "Feature", "properties": { "name": "Heart of Chelsea Veterinary Group - Lower East Side", "class": "service_vet", "icon": "vet" }, "geometry": { "type": "Point", "coordinates": [ -73.989924, 40.722669 ] } },
{ "type": "Feature", "properties": { "name": "Williamsburg Veterinary Clinic", "class": "service_vet", "icon": "vet" }, "geometry": { "type": "Point", "coordinates": [ -73.9635835375732, 40.718437573801396 ] } },
{ "type": "Feature", "properties": { "name": "Bushwick Veterinary Center", "class": "service_vet", "icon": "vet" }, "geometry": { "type": "Point", "coordinates": [ -73.9283409, 40.7050933 ] } },
{ "type": "Feature", "properties": { "name": "Reade Street Animal Hospital", "class": "service_vet", "icon": "vet" }, "geometry": { "type": "Point", "coordinates": [ -74.009971, 40.716739 ] } },
{ "type": "Feature", "properties": { "name": "One Love Animal Hospital", "class": "service_vet", "icon": "vet" }, "geometry": { "type": "Point", "coordinates": [ -73.987926, 40.688425 ] } },
{ "type": "Feature", "properties": { "name": "Vinegar Hill Veterinary Group", "class": "service_vet", "icon": "vet" }, "geometry": { "type": "Point", "coordinates": [ -73.991418, 40.702661 ] } },
{ "type": "Feature", "properties": { "name": "Hudson Animal Hospital", "class": "service_vet", "icon": "vet" }, "geometry": { "type": "Point", "coordinates": [ -73.988577799999987, 40.772443 ] } },
{ "type": "Feature", "properties": { "name": "Abingdon Square Veterinary Clinic", "class": "service_vet", "icon": "vet" }, "geometry": { "type": "Point", "coordinates": [ -74.000315, 40.734506 ] } },
{ "type": "Feature", "properties": { "name": "Bond Vet - Cobble Hill", "class": "service_vet", "icon": "vet" }, "geometry": { "type": "Point", "coordinates": [ -73.99368, 40.68664 ] } },
{ "type": "Feature", "properties": { "name": "Astoria Veterinary Group", "class": "service_vet", "icon": "vet" }, "geometry": { "type": "Point", "coordinates": [ -73.9098072, 40.7700909 ] } },
{ "type": "Feature", "properties": { "name": "Harlem Animal Hospital", "class": "service_vet", "icon": "vet" }, "geometry": { "type": "Point", "coordinates": [ -73.94807440000001, 40.8043877 ] } },
{ "type": "Feature", "properties": { "name": "Bensonhurst Veterinary Care", "class": "service_vet", "icon": "vet" }, "geometry": { "type": "Point", "coordinates": [ -73.991867, 40.611065 ] } },
{ "type": "Feature", "properties": { "name": "Crown Heights Animal Hospital", "class": "service_vet", "icon": "vet" }, "geometry": { "type": "Point", "coordinates": [ -73.956862, 40.672934 ] } },
{ "type": "Feature", "properties": { "name": "Metropolitan Mobile Vet", "class": "service_vet", "icon": "vet" }, "geometry": { "type": "Point", "coordinates": [ -73.9565551, 40.6945036 ] } },
{ "type": "Feature", "properties": { "name": "Gotham Animal Clinic", "class": "service_vet", "icon": "vet" }, "geometry": { "type": "Point", "coordinates": [ -73.98278, 40.73563 ] } },
{ "type": "Feature", "properties": { "name": "The Village Veterinarian", "class": "service_vet", "icon": "vet" }, "geometry": { "type": "Point", "coordinates": [ -73.985752, 40.730016 ] } },
{ "type": "Feature", "properties": { "name": "Prospect Heights Animal Hospital", "class": "service_vet", "icon": "vet" }, "geometry": { "type": "Point", "coordinates": [ -73.973785400390597, 40.679466247558601 ] } },
{ "type": "Feature", "properties": { "name": "Franklin Ave Animal Hospital", "class": "service_vet", "icon": "vet" }, "geometry": { "type": "Point", "coordinates": [ -73.955722, 40.6772974 ] } },
{ "type": "Feature", "properties": { "name": "West Chelsea Veterinary Hospital", "class": "service_vet", "icon": "vet" }, "geometry": { "type": "Point", "coordinates": [ -73.99614, 40.74668 ] } },
{ "type": "Feature", "properties": { "name": "Greenwich Village Animal Hospital", "class": "service_vet", "icon": "vet" }, "geometry": { "type": "Point", "coordinates": [ -74.00619, 40.73323 ] } },
{ "type": "Feature", "properties": { "name": "Park Slope Veterinary Center", "class": "service_vet", "icon": "vet" }, "geometry": { "type": "Point", "coordinates": [ -73.99446, 40.66359 ] } },
{ "type": "Feature", "properties": { "name": "Pawsitive Veterinary", "class": "service_vet", "icon": "vet" }, "geometry": { "type": "Point", "coordinates": [ -73.96914, 40.6473 ] } },
{ "type": "Feature", "properties": { "name": "Williamsburg Animal Clinic", "class": "service_vet", "icon": "vet" }, "geometry": { "type": "Point", "coordinates": [ -73.942717, 40.711478 ] } },
{ "type": "Feature", "properties": { "name": "Battery Park Veterinary Hospital", "class": "service_vet", "icon": "vet" }, "geometry": { "type": "Point", "coordinates": [ -74.01779, 40.70819 ] } },
{ "type": "Feature", "properties": { "name": "North Slope Veterinary", "class": "service_vet", "icon": "vet" }, "geometry": { "type": "Point", "coordinates": [ -73.977684235343588, 40.675451667333498 ] } },
{ "type": "Feature", "properties": { "name": "Long Island City Veterinary Center", "class": "service_vet", "icon": "vet" }, "geometry": { "type": "Point", "coordinates": [ -73.954039626940101, 40.743635028511896 ] } },
{ "type": "Feature", "properties": { "name": "Seaport Animal Hospital", "class": "service_vet", "icon": "vet" }, "geometry": { "type": "Point", "coordinates": [ -74.0035782, 40.7085457 ] } },
{ "type": "Feature", "properties": { "name": "Upper East Veterinary", "class": "service_vet", "icon": "vet" }, "geometry": { "type": "Point", "coordinates": [ -73.94961, 40.78373 ] } },
{ "type": "Feature", "properties": { "name": "Pure Paws Veterinary Care of Clinton Hill", "class": "service_vet", "icon": "vet" }, "geometry": { "type": "Point", "coordinates": [ -73.963018007969296, 40.682521061775297 ] } },
{ "type": "Feature", "properties": { "name": "West Village Veterinary Hospital", "class": "service_vet", "icon": "vet" }, "geometry": { "type": "Point", "coordinates": [ -74.002964373016411, 40.739605117739501 ] } },
{ "type": "Feature", "properties": { "name": "All Creatures Veterinary Hospital", "class": "service_vet", "icon": "vet" }, "geometry": { "type": "Point", "coordinates": [ -73.96359, 40.67818 ] } },
{ "type": "Feature", "properties": { "name": "Pure Paws Veterinary Care of Hell's Kitchen", "class": "service_vet", "icon": "vet" }, "geometry": { "type": "Point", "coordinates": [ -73.996128, 40.7596826 ] } },
{ "type": "Feature", "properties": { "name": "Dr Pet Daddy", "class": "service_vet", "icon": "vet" }, "geometry": { "type": "Point", "coordinates": [ -73.91714, 40.77375 ] } },
{ "type": "Feature", "properties": { "name": "City Vet", "class": "service_vet", "icon": "vet" }, "geometry": { "type": "Point", "coordinates": [ -73.952961, 40.7471194 ] } },
{ "type": "Feature", "properties": { "name": "Carroll Gardens Veterinary Group", "class": "service_vet", "icon": "vet" }, "geometry": { "type": "Point", "coordinates": [ -73.997993, 40.6774155 ] } },
{ "type": "Feature", "properties": { "name": "Heart of Chelsea Veterinary Group - Chelsea", "class": "service_vet", "icon": "vet" }, "geometry": { "type": "Point", "coordinates": [ -74.00016, 40.74218 ] } },
{ "type": "Feature", "properties": { "name": "Greenpoint Veterinary Hospital", "class": "service_vet", "icon": "vet" }, "geometry": { "type": "Point", "coordinates": [ -73.9495, 40.7243 ] } },
{ "type": "Feature", "properties": { "name": "Brooklyn's Finest Animal Clinic", "class": "service_vet", "icon": "vet" }, "geometry": { "type": "Point", "coordinates": [ -73.95093, 40.66048 ] } },
{ "type": "Feature", "properties": { "name": "Murray Hill Pet Hospital", "class": "service_vet", "icon": "vet" }, "geometry": { "type": "Point", "coordinates": [ -73.9835, 40.74495 ] } },
{ "type": "Feature", "properties": { "name": "Alison Animal Hospital", "class": "service_vet", "icon": "vet" }, "geometry": { "type": "Point", "coordinates": [ -73.98089, 40.6599999 ] } },
{ "type": "Feature", "properties": { "name": "Rivergate Veterinary Clinic", "class": "service_vet", "icon": "vet" }, "geometry": { "type": "Point", "coordinates": [ -73.971800241580908, 40.745618964420402 ] } },
{ "type": "Feature", "properties": { "name": "Heart of Harlem Veterinary Clinic", "class": "service_vet", "icon": "vet" }, "geometry": { "type": "Point", "coordinates": [ -73.947059599999989, 40.810257 ] } },
{ "type": "Feature", "properties": { "name": "The Vet Set", "class": "service_vet", "icon": "vet" }, "geometry": { "type": "Point", "coordinates": [ -74.0004, 40.68179 ] } },
{ "type": "Feature", "properties": { "name": "Broadway Animal Hospital", "class": "service_vet", "icon": "vet" }, "geometry": { "type": "Point", "coordinates": [ -73.9031953, 40.880931 ] } },
{ "type": "Feature", "properties": { "name": "York Veterinary Center", "class": "service_vet", "icon": "vet" }, "geometry": { "type": "Point", "coordinates": [ -73.95488, 40.7675 ] } },
{ "type": "Feature", "properties": { "name": "Heart of Brooklyn Veterinary Hospital", "class": "service_vet", "icon": "vet" }, "geometry": { "type": "Point", "coordinates": [ -73.97371, 40.68616 ] } },
{ "type": "Feature", "properties": { "name": "Kalvig & Shorter Veterinary Associates", "class": "service_vet", "icon": "vet" }, "geometry": { "type": "Point", "coordinates": [ -73.9769976, 40.7494426 ] } },
{ "type": "Feature", "properties": { "name": "Northside Veterinary Clinic", "class": "service_vet", "icon": "vet" }, "geometry": { "type": "Point", "coordinates": [ -73.962015813787403, 40.715592155747899 ] } },
{ "type": "Feature", "properties": { "name": "Riverside Animal Hospital North", "class": "service_vet", "icon": "vet" }, "geometry": { "type": "Point", "coordinates": [ -73.967013973885912, 40.80258 ] } },
{ "type": "Feature", "properties": { "name": "Steinway Court Veterinarian", "class": "service_vet", "icon": "vet" }, "geometry": { "type": "Point", "coordinates": [ -73.919577598571792, 40.757887701496699 ] } },
{ "type": "Feature", "properties": { "name": "One Love Animal Hospital", "class": "service_vet", "icon": "vet" }, "geometry": { "type": "Point", "coordinates": [ -74.029648, 40.62603 ] } },
{ "type": "Feature", "properties": { "name": "Brooklyn Roots Veterinary Hospital", "class": "service_vet", "icon": "vet" }, "geometry": { "type": "Point", "coordinates": [ -73.986633300781207, 40.676265716552699 ] } },
{ "type": "Feature", "properties": { "name": "Westside Veterinary Center", "class": "service_vet", "icon": "vet" }, "geometry": { "type": "Point", "coordinates": [ -73.977481, 40.7859476 ] } },
{ "type": "Feature", "properties": { "name": "Heart of Chelsea Veterinary Group - Hell's Kitchen", "class": "service_vet", "icon": "vet" }, "geometry": { "type": "Point", "coordinates": [ -73.99265, 40.76188 ] } },
{ "type": "Feature", "properties": { "name": "Prospect Park Animal Clinic", "class": "service_vet", "icon": "vet" }, "geometry": { "type": "Point", "coordinates": [ -73.97548, 40.66675 ] } },
{ "type": "Feature", "properties": { "name": "Tribeca Soho Animal Hospital", "class": "service_vet", "icon": "vet" }, "geometry": { "type": "Point", "coordinates": [ -74.004868658895504, 40.720578032846497 ] } },
{ "type": "Feature", "properties": { "name": "Veterinary Care Group - Astoria", "class": "service_vet", "icon": "vet" }, "geometry": { "type": "Point", "coordinates": [ -73.92021, 40.75981 ] } },
{ "type": "Feature", "properties": { "name": "Veterinary Wellness Center", "class": "service_vet", "icon": "vet" }, "geometry": { "type": "Point", "coordinates": [ -73.98219, 40.68362 ] } },
{ "type": "Feature", "properties": { "name": "Loving Paws Animal Hospital", "class": "service_vet", "icon": "vet" }, "geometry": { "type": "Point", "coordinates": [ -74.023384094238295, 40.635791778564503 ] } },
{ "type": "Feature", "properties": { "name": "Forest Animal Hospital", "class": "service_vet", "icon": "vet" }, "geometry": { "type": "Point", "coordinates": [ -74.12451, 40.62703 ] } },
{ "type": "Feature", "properties": { "name": "Animal Clinic of Bay Ridge", "class": "service_vet", "icon": "vet" }, "geometry": { "type": "Point", "coordinates": [ -74.021988400000012, 40.6192396 ] } },
{ "type": "Feature", "properties": { "name": "Inwood Animal Clinic", "class": "service_vet", "icon": "vet" }, "geometry": { "type": "Point", "coordinates": [ -73.9245, 40.86635 ] } },
{ "type": "Feature", "properties": { "name": "Felton Veterinary Services", "class": "service_vet", "icon": "vet" }, "geometry": { "type": "Point", "coordinates": [ -73.971043, 40.675234 ] } },
{ "type": "Feature", "properties": { "name": "Cooper Square Veterinary Hospital", "class": "service_vet", "icon": "vet" }, "geometry": { "type": "Point", "coordinates": [ -73.99048, 40.72754 ] } },
{ "type": "Feature", "properties": { "name": "Fuzzy Pet Health", "class": "service_vet", "icon": "vet" }, "geometry": { "type": "Point", "coordinates": [ -73.9977904089844, 40.718305808438501 ] } },
{ "type": "Feature", "properties": { "name": "Skillman Animal Clinic", "class": "service_vet", "icon": "vet" }, "geometry": { "type": "Point", "coordinates": [ -73.91853, 40.74636 ] } },
{ "type": "Feature", "properties": { "name": "Washington Square Animal Hospital", "class": "service_vet", "icon": "vet" }, "geometry": { "type": "Point", "coordinates": [ -73.994468, 40.732471 ] } },
{ "type": "Feature", "properties": { "name": "Fifth Avenue Veterinary Hospital", "class": "service_vet", "icon": "vet" }, "geometry": { "type": "Point", "coordinates": [ -74.02897, 40.6186099 ] } },
{ "type": "Feature", "properties": { "name": "Animal Kind Veterinary Hospital", "class": "service_vet", "icon": "vet" }, "geometry": { "type": "Point", "coordinates": [ -73.98233, 40.66577 ] } },
{ "type": "Feature", "properties": { "name": "Community Veterinary Medicine", "class": "service_vet", "icon": "vet" }, "geometry": { "type": "Point", "coordinates": [ -73.94812, 40.83007 ] } },
{ "type": "Feature", "properties": { "name": "Call Ahead Veterinary", "class": "service_vet", "icon": "vet" }, "geometry": { "type": "Point", "coordinates": [ -73.99254, 40.66244 ] } },
{ "type": "Feature", "properties": { "name": "Yorkville Animal Hospital", "class": "service_vet", "icon": "vet" }, "geometry": { "type": "Point", "coordinates": [ -73.95372, 40.77724 ] } },
{ "type": "Feature", "properties": { "name": "Animal Clinic of Canarsie", "class": "service_vet", "icon": "vet" }, "geometry": { "type": "Point", "coordinates": [ -73.9029599, 40.64485 ] } },
{ "type": "Feature", "properties": { "name": "Daniel Leiman, DVM", "class": "service_vet", "icon": "vet" }, "geometry": { "type": "Point", "coordinates": [ -73.96207, 40.71558 ] } },
{ "type": "Feature", "properties": { "name": "Bath Animal Hospital", "class": "service_vet", "icon": "vet" }, "geometry": { "type": "Point", "coordinates": [ -73.998397, 40.599507 ] } },
{ "type": "Feature", "properties": { "name": "Vetted - New York City", "class": "service_vet", "icon": "vet" }, "geometry": { "type": "Point", "coordinates": [ -73.99793, 40.7258 ] } },
{ "type": "Feature", "properties": { "name": "4 Legged Friends", "class": "service_vet", "icon": "vet" }, "geometry": { "type": "Point", "coordinates": [ -74.002099111676202, 40.601806864142397 ] } },
{ "type": "Feature", "properties": { "name": "St. Marks Veterinary Hospital", "class": "service_vet", "icon": "vet" }, "geometry": { "type": "Point", "coordinates": [ -73.985519, 40.728229 ] } },
{ "type": "Feature", "properties": { "name": "Cathedral Dog & Cat Hospital", "class": "service_vet", "icon": "vet" }, "geometry": { "type": "Point", "coordinates": [ -73.96975, 40.79806 ] } },
{ "type": "Feature", "properties": { "name": "At Home Veterinary", "class": "service_vet", "icon": "vet" }, "geometry": { "type": "Point", "coordinates": [ -73.95846, 40.77031 ] } },
{ "type": "Feature", "properties": { "name": "ABC Animal Hospital", "class": "service_vet", "icon": "vet" }, "geometry": { "type": "Point", "coordinates": [ -73.980834, 40.729259 ] } },
{ "type": "Feature", "properties": { "name": "Gotham Veterinary Center", "class": "service_vet", "icon": "vet" }, "geometry": { "type": "Point", "coordinates": [ -73.968563, 40.791982 ] } },
{ "type": "Feature", "properties": { "name": "Midtown Animal Hospital", "class": "service_vet", "icon": "vet" }, "geometry": { "type": "Point", "coordinates": [ -73.976677, 40.744071 ] } },
{ "type": "Feature", "properties": { "name": "City Veterinary Care", "class": "service_vet", "icon": "vet" }, "geometry": { "type": "Point", "coordinates": [ -73.98291015625, 40.778835296630895 ] } },
{ "type": "Feature", "properties": { "name": "Brooklyn Veterinary Group", "class": "service_vet", "icon": "vet" }, "geometry": { "type": "Point", "coordinates": [ -74.00066, 40.61446 ] } },
{ "type": "Feature", "properties": { "name": "Veterinary Emergency Group", "class": "service_vet", "icon": "vet" }, "geometry": { "type": "Point", "coordinates": [ -73.962354979042502, 40.763683053649004 ] } },
{ "type": "Feature", "properties": { "name": "Oliver's Dog & Cat Clinic", "class": "service_vet", "icon": "vet" }, "geometry": { "type": "Point", "coordinates": [ -73.935745, 40.794986 ] } },
{ "type": "Feature", "properties": { "name": "BluePearl - Brooklyn", "class": "service_vet", "icon": "vet" }, "geometry": { "type": "Point", "coordinates": [ -73.984157, 40.680292 ] } },
{ "type": "Feature", "properties": { "name": "Clinton Hill Animal Clinic", "class": "service_vet", "icon": "vet" }, "geometry": { "type": "Point", "coordinates": [ -73.966262, 40.693164 ] } },
{ "type": "Feature", "properties": { "name": "Heights and Hill Veterinary Hospital", "class": "service_vet", "icon": "vet" }, "geometry": { "type": "Point", "coordinates": [ -73.9952384, 40.690202 ] } },
{ "type": "Feature", "properties": { "name": "Sutton Animal Hospital", "class": "service_vet", "icon": "vet" }, "geometry": { "type": "Point", "coordinates": [ -73.9605699, 40.762071 ] } },
{ "type": "Feature", "properties": { "name": "Mill Basin Veterinary Clinic", "class": "service_vet", "icon": "vet" }, "geometry": { "type": "Point", "coordinates": [ -73.916651, 40.619888 ] } },
{ "type": "Feature", "properties": { "name": "Yonkers Animal Hospital", "class": "service_vet", "icon": "vet" }, "geometry": { "type": "Point", "coordinates": [ -73.872887, 40.9539029 ] } },
{ "type": "Feature", "properties": { "name": "VERG- Veterinary Emergency and Referral Group", "class": "service_vet", "icon": "vet" }, "geometry": { "type": "Point", "coordinates": [ -73.9825246, 40.6783057 ] } },
{ "type": "Feature", "properties": { "name": "VetCierge", "class": "service_vet", "icon": "vet" }, "geometry": { "type": "Point", "coordinates": [ -73.98736558713459, 40.771165157231003 ] } },
{ "type": "Feature", "properties": { "name": "Home Vets NYC\/NJ", "class": "service_vet", "icon": "vet" }, "geometry": { "type": "Point", "coordinates": [ -73.99323, 40.75882 ] } },
{ "type": "Feature", "properties": { "name": "Symphony Veterinary Center", "class": "service_vet", "icon": "vet" }, "geometry": { "type": "Point", "coordinates": [ -73.969984910433411, 40.793638185706705 ] } },
{ "type": "Feature", "properties": { "name": "Columbus Circle Veterinary Hospital", "class": "service_vet", "icon": "vet" }, "geometry": { "type": "Point", "coordinates": [ -73.9847692925903, 40.769486732082207 ] } },
{ "type": "Feature", "properties": { "name": "Uptown Veterinary Associates", "class": "service_vet", "icon": "vet" }, "geometry": { "type": "Point", "coordinates": [ -73.95679, 40.8017899 ] } },
{ "type": "Feature", "properties": { "name": "Animal Clinic of New York", "class": "service_vet", "icon": "vet" }, "geometry": { "type": "Point", "coordinates": [ -73.9502865, 40.775895 ] } },
{ "type": "Feature", "properties": { "name": "Met Vet NYC", "class": "service_vet", "icon": "vet" }, "geometry": { "type": "Point", "coordinates": [ -74.00504, 40.73796 ] } },
{ "type": "Feature", "properties": { "name": "Greenwood Veterinary Care", "class": "service_vet", "icon": "vet" }, "geometry": { "type": "Point", "coordinates": [ -73.99422, 40.66077 ] } },
{ "type": "Feature", "properties": { "name": "House Call Vet NYC", "class": "service_vet", "icon": "vet" }, "geometry": { "type": "Point", "coordinates": [ -73.992752075195298, 40.766292572021499 ] } },
{ "type": "Feature", "properties": { "name": "Fallek Marcie, DVM, CVA", "class": "service_vet", "icon": "vet" }, "geometry": { "type": "Point", "coordinates": [ -74.010284, 40.705688 ] } },
{ "type": "Feature", "properties": { "name": "Bay Street Animal Hospital", "class": "service_vet", "icon": "vet" }, "geometry": { "type": "Point", "coordinates": [ -74.068929408598294, 40.618482536949799 ] } },
{ "type": "Feature", "properties": { "name": "Gramercy Park Animal Hospital", "class": "service_vet", "icon": "vet" }, "geometry": { "type": "Point", "coordinates": [ -73.988929748535199, 40.738288879394496 ] } },
{ "type": "Feature", "properties": { "name": "Four Corners Veterinary Practice", "class": "service_vet", "icon": "vet" }, "geometry": { "type": "Point", "coordinates": [ -74.10079, 40.59154 ] } },
{ "type": "Feature", "properties": { "name": "Park East Animal Hospital", "class": "service_vet", "icon": "vet" }, "geometry": { "type": "Point", "coordinates": [ -73.958312, 40.768428 ] } },
{ "type": "Feature", "properties": { "name": "Upper East Side Animal Hospital", "class": "service_vet", "icon": "vet" }, "geometry": { "type": "Point", "coordinates": [ -73.9611432, 40.7639211 ] } },
{ "type": "Feature", "properties": { "name": "Downtown Veterinary Clinic", "class": "service_vet", "icon": "vet" }, "geometry": { "type": "Point", "coordinates": [ -74.0004171, 40.7474609 ] } },
{ "type": "Feature", "properties": { "name": "On The Go Veterinary Services", "class": "service_vet", "icon": "vet" }, "geometry": { "type": "Point", "coordinates": [ -73.927902221679702, 40.761978149414098 ] } },
{ "type": "Feature", "properties": { "name": "Park Slope Veterinary Care", "class": "service_vet", "icon": "vet" }, "geometry": { "type": "Point", "coordinates": [ -73.98551, 40.66991 ] } },
{ "type": "Feature", "properties": { "name": "Hope Animal Hospital", "class": "service_vet", "icon": "vet" }, "geometry": { "type": "Point", "coordinates": [ -73.985504, 40.686908 ] } },
{ "type": "Feature", "properties": { "name": "Faithful Friends Animal Hospital", "class": "service_vet", "icon": "vet" }, "geometry": { "type": "Point", "coordinates": [ -73.9735, 40.59194 ] } },
{ "type": "Feature", "properties": { "name": "Animal Clinic of 20th Avenue", "class": "service_vet", "icon": "vet" }, "geometry": { "type": "Point", "coordinates": [ -73.9967, 40.60591 ] } },
{ "type": "Feature", "properties": { "name": "Off Leash Veterinary Care", "class": "service_vet", "icon": "vet" }, "geometry": { "type": "Point", "coordinates": [ -74.0050428013421, 40.735120375415704 ] } },
{ "type": "Feature", "properties": { "name": "Bruce Lowenstein, DVM - Veterinary House Calls", "class": "service_vet", "icon": "vet" }, "geometry": { "type": "Point", "coordinates": [ -73.97588, 40.7862 ] } },
{ "type": "Feature", "properties": { "name": "Mixlab", "class": "service_vet", "icon": "vet" }, "geometry": { "type": "Point", "coordinates": [ -73.99396, 40.75479 ] } },
{ "type": "Feature", "properties": { "name": "Simon Scott M, DVM", "class": "service_vet", "icon": "vet" }, "geometry": { "type": "Point", "coordinates": [ -73.995574638247504, 40.742337182164199 ] } },
{ "type": "Feature", "properties": { "name": "Brooklyn Veterinary Group", "class": "service_vet", "icon": "vet" }, "geometry": { "type": "Point", "coordinates": [ -74.0247187, 40.6240693 ] } },
{ "type": "Feature", "properties": { "name": "Marine Park Veterinary Group", "class": "service_vet", "icon": "vet" }, "geometry": { "type": "Point", "coordinates": [ -73.9317499, 40.60965 ] } },
{ "type": "Feature", "properties": { "name": "George M Korin, DVM", "class": "service_vet", "icon": "vet" }, "geometry": { "type": "Point", "coordinates": [ -73.952522277832003, 40.729850769043004 ] } },
{ "type": "Feature", "properties": { "name": "The Cat Practice", "class": "service_vet", "icon": "vet" }, "geometry": { "type": "Point", "coordinates": [ -73.994033, 40.7445564 ] } },
{ "type": "Feature", "properties": { "name": "Bedford Stuyvesant Veterinary Clinic", "class": "service_vet", "icon": "vet" }, "geometry": { "type": "Point", "coordinates": [ -73.945034, 40.680323 ] } },
{ "type": "Feature", "properties": { "name": "Lincoln Square Veterinary Hospital", "class": "service_vet", "icon": "vet" }, "geometry": { "type": "Point", "coordinates": [ -73.982915265242497, 40.774931351155402 ] } },
{ "type": "Feature", "properties": { "name": "Carnegie Hill Veterinarians", "class": "service_vet", "icon": "vet" }, "geometry": { "type": "Point", "coordinates": [ -73.949479, 40.785018 ] } },
{ "type": "Feature", "properties": { "name": "Richmond Valley Veterinary Practice", "class": "service_vet", "icon": "vet" }, "geometry": { "type": "Point", "coordinates": [ -74.23961, 40.52245 ] } },
{ "type": "Feature", "properties": { "name": "Urban Vets Animal Hospital", "class": "service_vet", "icon": "vet" }, "geometry": { "type": "Point", "coordinates": [ -73.977705818697203, 40.7260723942182 ] } },
{ "type": "Feature", "properties": { "name": "145th St Animal Hospital", "class": "service_vet", "icon": "vet" }, "geometry": { "type": "Point", "coordinates": [ -73.94687, 40.82475 ] } },
{ "type": "Feature", "properties": { "name": "New York Veterinary Practice", "class": "service_vet", "icon": "vet" }, "geometry": { "type": "Point", "coordinates": [ -73.9521598, 40.7734244 ] } },
{ "type": "Feature", "properties": { "name": "Animal Health Veterinary Group", "class": "service_vet", "icon": "vet" }, "geometry": { "type": "Point", "coordinates": [ -74.1062521, 40.6345652 ] } },
{ "type": "Feature", "properties": { "name": "East Side Animal Hospital", "class": "service_vet", "icon": "vet" }, "geometry": { "type": "Point", "coordinates": [ -73.96653, 40.75578 ] } },
{ "type": "Feature", "properties": { "name": "Clinton Veterinary Center", "class": "service_vet", "icon": "vet" }, "geometry": { "type": "Point", "coordinates": [ -73.98707, 40.7644499 ] } },
{ "type": "Feature", "properties": { "name": "Animal General", "class": "service_vet", "icon": "vet" }, "geometry": { "type": "Point", "coordinates": [ -73.971804970597802, 40.787347197118002 ] } },
{ "type": "Feature", "properties": { "name": "BluePearl - Downtown", "class": "service_vet", "icon": "vet" }, "geometry": { "type": "Point", "coordinates": [ -73.99368183, 40.73682333 ] } },
{ "type": "Feature", "properties": { "name": "Manhattan Cat Specialists", "class": "service_vet", "icon": "vet" }, "geometry": { "type": "Point", "coordinates": [ -73.981346860528006, 40.781816616654396 ] } },
{ "type": "Feature", "properties": { "name": "The Animal Medical Center", "class": "service_vet", "icon": "vet" }, "geometry": { "type": "Point", "coordinates": [ -73.9580926, 40.7600183 ] } },
{ "type": "Feature", "properties": { "name": "Healthy Pets Veterinary Services", "class": "service_vet", "icon": "vet" }, "geometry": { "type": "Point", "coordinates": [ -74.02831, 40.63059 ] } },
{ "type": "Feature", "properties": { "name": "Wespaw Pets Pharmacy", "class": "service_vet", "icon": "vet" }, "geometry": { "type": "Point", "coordinates": [ -73.908909099999988, 40.7718531 ] } },
{ "type": "Feature", "properties": { "name": "Vima Specialists", "class": "service_vet", "icon": "vet" }, "geometry": { "type": "Point", "coordinates": [ -73.95457, 40.77746 ] } },
{ "type": "Feature", "properties": { "name": "Brownstone Veterinary Care", "class": "service_vet", "icon": "vet" }, "geometry": { "type": "Point", "coordinates": [ -73.977813720703097, 40.654075973582394 ] } },
{ "type": "Feature", "properties": { "name": "Your Spoiled Pets", "class": "service_vet", "icon": "vet" }, "geometry": { "type": "Point", "coordinates": [ -73.947067260742202, 40.711101531982401 ] } },
{ "type": "Feature", "properties": { "name": "Court Square Animal Hospital", "class": "service_vet", "icon": "vet" }, "geometry": { "type": "Point", "coordinates": [ -73.941578799999988, 40.7498152 ] } },
{ "type": "Feature", "properties": { "name": "Kross Peter DVM", "class": "service_vet", "icon": "vet" }, "geometry": { "type": "Point", "coordinates": [ -73.9717676, 40.7456792 ] } },
{ "type": "Feature", "properties": { "name": "Veterinary Care Group Glen Oaks", "class": "service_vet", "icon": "vet" }, "geometry": { "type": "Point", "coordinates": [ -73.7175205, 40.7442839 ] } },
{ "type": "Feature", "properties": { "name": "Eltingville Veterinary Practice", "class": "service_vet", "icon": "vet" }, "geometry": { "type": "Point", "coordinates": [ -74.154068, 40.5346184 ] } },
{ "type": "Feature", "properties": { "name": "BluePearl - Midtown", "class": "service_vet", "icon": "vet" }, "geometry": { "type": "Point", "coordinates": [ -73.9875831, 40.7668721 ] } },
{ "type": "Feature", "properties": { "name": "Pet Haven Animal Hospital", "class": "service_vet", "icon": "vet" }, "geometry": { "type": "Point", "coordinates": [ -73.98043, 40.6469499 ] } },
{ "type": "Feature", "properties": { "name": "Dongan Hills Veterinary Practice", "class": "service_vet", "icon": "vet" }, "geometry": { "type": "Point", "coordinates": [ -74.093178, 40.584547 ] } },
{ "type": "Feature", "properties": { "name": "Pleasant Plains Animal Hospital", "class": "service_vet", "icon": "vet" }, "geometry": { "type": "Point", "coordinates": [ -74.193467, 40.531397 ] } },
{ "type": "Feature", "properties": { "name": "Staten Island Veterinary Group", "class": "service_vet", "icon": "vet" }, "geometry": { "type": "Point", "coordinates": [ -74.184482, 40.595671 ] } },
{ "type": "Feature", "properties": { "name": "Westside Animal Hospital", "class": "service_vet", "icon": "vet" }, "geometry": { "type": "Point", "coordinates": [ -73.992989, 40.762517 ] } },
{ "type": "Feature", "properties": { "name": "Bay Ridge Animal Hospital", "class": "service_vet", "icon": "vet" }, "geometry": { "type": "Point", "coordinates": [ -74.020575, 40.633913 ] } },
{ "type": "Feature", "properties": { "name": "TheHomeVet.com", "class": "service_vet", "icon": "vet" }, "geometry": { "type": "Point", "coordinates": [ -73.970573, 40.795231 ] } },
{ "type": "Feature", "properties": { "name": "Jeffrey Z Stein DVM", "class": "service_vet", "icon": "vet" }, "geometry": { "type": "Point", "coordinates": [ -73.953628, 40.578903 ] } },
{ "type": "Feature", "properties": { "name": "First Avenue Veterinary Hospital", "class": "service_vet", "icon": "vet" }, "geometry": { "type": "Point", "coordinates": [ -73.980415, 40.734813 ] } },
{ "type": "Feature", "properties": { "name": "Canarsie Animal Hospital", "class": "service_vet", "icon": "vet" }, "geometry": { "type": "Point", "coordinates": [ -73.90991, 40.6379 ] } },
{ "type": "Feature", "properties": { "name": "Cindy Bressler, DVM", "class": "service_vet", "icon": "vet" }, "geometry": { "type": "Point", "coordinates": [ -73.9541444, 40.7707716 ] } },
{ "type": "Feature", "properties": { "name": "Lenox Hill Veterinarians", "class": "service_vet", "icon": "vet" }, "geometry": { "type": "Point", "coordinates": [ -73.95838, 40.77197 ] } },
{ "type": "Feature", "properties": { "name": "Kaufman Charles, Veterinarian", "class": "service_vet", "icon": "vet" }, "geometry": { "type": "Point", "coordinates": [ -73.980857, 40.595874 ] } },
{ "type": "Feature", "properties": { "name": "Oceanside Animal Clinic", "class": "service_vet", "icon": "vet" }, "geometry": { "type": "Point", "coordinates": [ -73.96542, 40.60607 ] } },
{ "type": "Feature", "properties": { "name": "Jill Elliot, DVM", "class": "service_vet", "icon": "vet" }, "geometry": { "type": "Point", "coordinates": [ -74.0029921, 40.7395931 ] } },
{ "type": "Feature", "properties": { "name": "Pet Sitting Pod", "class": "service_vet", "icon": "vet" }, "geometry": { "type": "Point", "coordinates": [ -73.9909286, 40.7189713 ] } },
{ "type": "Feature", "properties": { "name": "Feline Health", "class": "service_vet", "icon": "vet" }, "geometry": { "type": "Point", "coordinates": [ -73.952278, 40.773389 ] } },
{ "type": "Feature", "properties": { "name": "Sunnyside Pet Healthcare Center", "class": "service_vet", "icon": "vet" }, "geometry": { "type": "Point", "coordinates": [ -73.91766, 40.74231 ] } },
{ "type": "Feature", "properties": { "name": "Noah's Ark Veterinary Practice", "class": "service_vet", "icon": "vet" }, "geometry": { "type": "Point", "coordinates": [ -73.94213, 40.61099 ] } },
{ "type": "Feature", "properties": { "name": "Madagascar Pet Services", "class": "service_vet", "icon": "vet" }, "geometry": { "type": "Point", "coordinates": [ -73.9249777, 40.7435876 ] } },
{ "type": "Feature", "properties": { "name": "Brooklyn Bridge Animal Welfare Coalition", "class": "service_vet", "icon": "vet" }, "geometry": { "type": "Point", "coordinates": [ -73.9908756, 40.6924765 ] } },
{ "type": "Feature", "properties": { "name": "Kings Bay Veterinary Group", "class": "service_vet", "icon": "vet" }, "geometry": { "type": "Point", "coordinates": [ -73.96109, 40.59445 ] } },
{ "type": "Feature", "properties": { "name": "21 Avenue Animal Clinic", "class": "service_vet", "icon": "vet" }, "geometry": { "type": "Point", "coordinates": [ -73.913903, 40.781951 ] } },
{ "type": "Feature", "properties": { "name": "Christopher Park Veterinary Hospital", "class": "service_vet", "icon": "vet" }, "geometry": { "type": "Point", "coordinates": [ -74.00052, 40.73387 ] } },
{ "type": "Feature", "properties": { "name": "Linda Jacobson, DVM", "class": "service_vet", "icon": "vet" }, "geometry": { "type": "Point", "coordinates": [ -73.979766, 40.605369 ] } },
{ "type": "Feature", "properties": { "name": "Sheepshead Bay Veterinary Group", "class": "service_vet", "icon": "vet" }, "geometry": { "type": "Point", "coordinates": [ -73.9434787, 40.6001113 ] } },
{ "type": "Feature", "properties": { "name": "New York Cat Hospital", "class": "service_vet", "icon": "vet" }, "geometry": { "type": "Point", "coordinates": [ -73.988528807400698, 40.776741614785799 ] } },
{ "type": "Feature", "properties": { "name": "Bronx Veterinary Center", "class": "service_vet", "icon": "vet" }, "geometry": { "type": "Point", "coordinates": [ -73.89287, 40.85998 ] } },
{ "type": "Feature", "properties": { "name": "InstaVet", "class": "service_vet", "icon": "vet" }, "geometry": { "type": "Point", "coordinates": [ -73.9438264, 40.7127091 ] } },
{ "type": "Feature", "properties": { "name": "Greater Staten Island Veterinary Services", "class": "service_vet", "icon": "vet" }, "geometry": { "type": "Point", "coordinates": [ -74.164114686603298, 40.607053625015503 ] } },
{ "type": "Feature", "properties": { "name": "Dr Pet MD", "class": "service_vet", "icon": "vet" }, "geometry": { "type": "Point", "coordinates": [ -73.91272, 40.76625 ] } },
{ "type": "Feature", "properties": { "name": "Riverdale Veterinary Group", "class": "service_vet", "icon": "vet" }, "geometry": { "type": "Point", "coordinates": [ -73.9071793, 40.8862926 ] } },
{ "type": "Feature", "properties": { "name": "Hatzidimitriou Peggy Dvm", "class": "service_vet", "icon": "vet" }, "geometry": { "type": "Point", "coordinates": [ -73.90557, 40.772895 ] } },
{ "type": "Feature", "properties": { "name": "Petropolis", "class": "service_vet", "icon": "vet" }, "geometry": { "type": "Point", "coordinates": [ -74.0144897, 40.7078248 ] } },
{ "type": "Feature", "properties": { "name": "Windsor Terrace Veterinarians", "class": "service_vet", "icon": "vet" }, "geometry": { "type": "Point", "coordinates": [ -73.976464, 40.65249 ] } },
{ "type": "Feature", "properties": { "name": "LIC Doghouse", "class": "service_vet", "icon": "vet" }, "geometry": { "type": "Point", "coordinates": [ -73.952935, 40.7471 ] } },
{ "type": "Feature", "properties": { "name": "Astoria Animal Society", "class": "service_vet", "icon": "vet" }, "geometry": { "type": "Point", "coordinates": [ -73.93219, 40.75799 ] } },
{ "type": "Feature", "properties": { "name": "Animal Hospital of Chelsea", "class": "service_vet", "icon": "vet" }, "geometry": { "type": "Point", "coordinates": [ -73.995574638247504, 40.742337182164199 ] } },
{ "type": "Feature", "properties": { "name": "Animal Hospital of Morris Park", "class": "service_vet", "icon": "vet" }, "geometry": { "type": "Point", "coordinates": [ -73.8518, 40.8503 ] } },
{ "type": "Feature", "properties": { "name": "Animal Clinic of Long Island City", "class": "service_vet", "icon": "vet" }, "geometry": { "type": "Point", "coordinates": [ -73.92866, 40.75635 ] } },
{ "type": "Feature", "properties": { "name": "Dogboy", "class": "service_vet", "icon": "vet" }, "geometry": { "type": "Point", "coordinates": [ -73.985941400000016, 40.6986772 ] } },
{ "type": "Feature", "properties": { "name": "Manhattan Veterinary Group", "class": "service_vet", "icon": "vet" }, "geometry": { "type": "Point", "coordinates": [ -73.955176, 40.774074 ] } },
{ "type": "Feature", "properties": { "name": "St Francis Animal Hospital of Staten Island", "class": "service_vet", "icon": "vet" }, "geometry": { "type": "Point", "coordinates": [ -74.160338, 40.544801 ] } },
{ "type": "Feature", "properties": { "name": "Old Shore Animal Clinic", "class": "service_vet", "icon": "vet" }, "geometry": { "type": "Point", "coordinates": [ -73.70295, 40.83914 ] } },
{ "type": "Feature", "properties": { "name": "East Meets West Veterinary Care", "class": "service_vet", "icon": "vet" }, "geometry": { "type": "Point", "coordinates": [ -73.997932434082003, 40.725799560546896 ] } },
{ "type": "Feature", "properties": { "name": "St. Francis Animal Hospital", "class": "service_vet", "icon": "vet" }, "geometry": { "type": "Point", "coordinates": [ -74.00634, 40.62133 ] } },
{ "type": "Feature", "properties": { "name": "Bideawee", "class": "service_vet", "icon": "vet" }, "geometry": { "type": "Point", "coordinates": [ -73.971, 40.74587 ] } },
{ "type": "Feature", "properties": { "name": "Wiggly Pups", "class": "service_vet", "icon": "vet" }, "geometry": { "type": "Point", "coordinates": [ -73.9843099, 40.73821 ] } },
{ "type": "Feature", "properties": { "name": "Happy Dogs at Stuyvesant Town", "class": "service_vet", "icon": "vet" }, "geometry": { "type": "Point", "coordinates": [ -73.9784936, 40.737372 ] } },
{ "type": "Feature", "properties": { "name": "Riverdale Animal Hospital", "class": "service_vet", "icon": "vet" }, "geometry": { "type": "Point", "coordinates": [ -73.902182, 40.884378 ] } },
{ "type": "Feature", "properties": { "name": "Staten Island Animal Hospital", "class": "service_vet", "icon": "vet" }, "geometry": { "type": "Point", "coordinates": [ -74.147256, 40.609434 ] } },
{ "type": "Feature", "properties": { "name": "Andrew Obstler, VMD", "class": "service_vet", "icon": "vet" }, "geometry": { "type": "Point", "coordinates": [ -73.98569, 40.77033 ] } },
{ "type": "Feature", "properties": { "name": "Sharon Mear's Training Cats and Dogs", "class": "service_vet", "icon": "vet" }, "geometry": { "type": "Point", "coordinates": [ -74.005386352539091, 40.744106292724602 ] } },
{ "type": "Feature", "properties": { "name": "Tracy Akner, VMD, CVA", "class": "service_vet", "icon": "vet" }, "geometry": { "type": "Point", "coordinates": [ -73.97832, 40.74504 ] } },
{ "type": "Feature", "properties": { "name": "Armory Dog & Cat Hospital", "class": "service_vet", "icon": "vet" }, "geometry": { "type": "Point", "coordinates": [ -73.89683, 40.86725 ] } },
{ "type": "Feature", "properties": { "name": "Petness World", "class": "service_vet", "icon": "vet" }, "geometry": { "type": "Point", "coordinates": [ -73.93725, 40.84477 ] } },
{ "type": "Feature", "properties": { "name": "Humane Society of New York", "class": "service_vet", "icon": "vet" }, "geometry": { "type": "Point", "coordinates": [ -73.96388, 40.76016 ] } },
{ "type": "Feature", "properties": { "name": "South Shore Animal Hospital", "class": "service_vet", "icon": "vet" }, "geometry": { "type": "Point", "coordinates": [ -74.116030331734805, 40.573997744311107 ] } },
{ "type": "Feature", "properties": { "name": "City Pets", "class": "service_vet", "icon": "vet" }, "geometry": { "type": "Point", "coordinates": [ -73.98504, 40.76419 ] } },
{ "type": "Feature", "properties": { "name": "Bronx County Animal Hospital", "class": "service_vet", "icon": "vet" }, "geometry": { "type": "Point", "coordinates": [ -73.8564017, 40.8477947 ] } },
{ "type": "Feature", "properties": { "name": "CompleteCare Veterinary Center", "class": "service_vet", "icon": "vet" }, "geometry": { "type": "Point", "coordinates": [ -74.10278, 40.61572 ] } },
{ "type": "Feature", "properties": { "name": "Daniel E Grayson, DVM", "class": "service_vet", "icon": "vet" }, "geometry": { "type": "Point", "coordinates": [ -73.970573, 40.795231 ] } },
{ "type": "Feature", "properties": { "name": "ASPCA Mobile Spay\/Neuter Clinic", "class": "service_vet", "icon": "vet" }, "geometry": { "type": "Point", "coordinates": [ -73.8726, 40.67661 ] } },
{ "type": "Feature", "properties": { "name": "Petco", "class": "service_vet", "icon": "vet" }, "geometry": { "type": "Point", "coordinates": [ -74.007554, 40.655566 ] } },
{ "type": "Feature", "properties": { "name": "Crossbronx Pet Shop", "class": "service_vet", "icon": "vet" }, "geometry": { "type": "Point", "coordinates": [ -73.85455, 40.8310699 ] } },
{ "type": "Feature", "properties": { "name": "Janet Ficarra, DVM", "class": "service_vet", "icon": "vet" }, "geometry": { "type": "Point", "coordinates": [ -74.0003103, 40.7475957 ] } },
{ "type": "Feature", "properties": { "name": "Animal Hospital of Brooklyn", "class": "service_vet", "icon": "vet" }, "geometry": { "type": "Point", "coordinates": [ -73.9285002, 40.6146844 ] } },
{ "type": "Feature", "properties": { "name": "Middletown Animal Clinic", "class": "service_vet", "icon": "vet" }, "geometry": { "type": "Point", "coordinates": [ -73.830596, 40.843514 ] } },
{ "type": "Feature", "properties": { "name": "Aadobe Animal Hospital", "class": "service_vet", "icon": "vet" }, "geometry": { "type": "Point", "coordinates": [ -74.13304, 40.62614 ] } },
{ "type": "Feature", "properties": { "name": "Joanna Gardner, DVM", "class": "service_vet", "icon": "vet" }, "geometry": { "type": "Point", "coordinates": [ -73.941032409667997, 40.750720977783203 ] } },
{ "type": "Feature", "properties": { "name": "Hylan Animal Hospital", "class": "service_vet", "icon": "vet" }, "geometry": { "type": "Point", "coordinates": [ -74.082645178504194, 40.597995812336102 ] } },
{ "type": "Feature", "properties": { "name": "LUZ TLC Pet Service", "class": "service_vet", "icon": "vet" }, "geometry": { "type": "Point", "coordinates": [ -73.951714, 40.69408 ] } },
{ "type": "Feature", "properties": { "name": "Westchester Animal Hospital", "class": "service_vet", "icon": "vet" }, "geometry": { "type": "Point", "coordinates": [ -73.837668069655194, 40.920497620840898 ] } },
{ "type": "Feature", "properties": { "name": "Riverside Animal Hospital South", "class": "service_vet", "icon": "vet" }, "geometry": { "type": "Point", "coordinates": [ -73.979076081597299, 40.783764829965698 ] } },
{ "type": "Feature", "properties": { "name": "Veterinary Emergency Group", "class": "service_vet", "icon": "vet" }, "geometry": { "type": "Point", "coordinates": [ -73.929517, 40.615631 ] } },
{ "type": "Feature", "properties": { "name": "Dr Lori Weinstock", "class": "service_vet", "icon": "vet" }, "geometry": { "type": "Point", "coordinates": [ -73.943977, 40.610019 ] } },
{ "type": "Feature", "properties": { "name": "Banfield Pet Hospital", "class": "service_vet", "icon": "vet" }, "geometry": { "type": "Point", "coordinates": [ -73.9311392605305, 40.795390546476199 ] } },
{ "type": "Feature", "properties": { "name": "Giangola Daniel DVM Veterinarian", "class": "service_vet", "icon": "vet" }, "geometry": { "type": "Point", "coordinates": [ -73.94835, 40.77778 ] } },
{ "type": "Feature", "properties": { "name": "Bronx Veterinary Center of Westchester Square", "class": "service_vet", "icon": "vet" }, "geometry": { "type": "Point", "coordinates": [ -73.8428329, 40.8413369 ] } },
{ "type": "Feature", "properties": { "name": "Henry M Fierman, VMD - Cathedral Dog and Cat Hospital", "class": "service_vet", "icon": "vet" }, "geometry": { "type": "Point", "coordinates": [ -73.96975, 40.79806 ] } },
{ "type": "Feature", "properties": { "name": "ASPCA Animal Hospital", "class": "service_vet", "icon": "vet" }, "geometry": { "type": "Point", "coordinates": [ -73.94568, 40.78006 ] } },
{ "type": "Feature", "properties": { "name": "Riverside Veterinary Clinic", "class": "service_vet", "icon": "vet" }, "geometry": { "type": "Point", "coordinates": [ -73.938738, 40.846777 ] } },
{ "type": "Feature", "properties": { "name": "Manhattan Beach Animal Clinic", "class": "service_vet", "icon": "vet" }, "geometry": { "type": "Point", "coordinates": [ -73.958099, 40.579895 ] } },
{ "type": "Feature", "properties": { "name": "Village House Call Vet", "class": "service_vet", "icon": "vet" }, "geometry": { "type": "Point", "coordinates": [ -74.0107, 40.719 ] } },
{ "type": "Feature", "properties": { "name": "Animal Clinic of Marine Park", "class": "service_vet", "icon": "vet" }, "geometry": { "type": "Point", "coordinates": [ -73.93621, 40.61486 ] } },
{ "type": "Feature", "properties": { "name": "Whiskers Holistic Pet Store", "class": "service_vet", "icon": "vet" }, "geometry": { "type": "Point", "coordinates": [ -73.9874105, 40.7322535 ] } },
{ "type": "Feature", "properties": { "name": "Dobbs Ferry Animal Hospital", "class": "service_vet", "icon": "vet" }, "geometry": { "type": "Point", "coordinates": [ -73.85257, 41.014 ] } },
{ "type": "Feature", "properties": { "name": "Tribeca Veterinary Wellness", "class": "service_vet", "icon": "vet" }, "geometry": { "type": "Point", "coordinates": [ -74.01099, 40.72275 ] } },
{ "type": "Feature", "properties": { "name": "Central Animal Hospital", "class": "service_vet", "icon": "vet" }, "geometry": { "type": "Point", "coordinates": [ -73.821586700000012, 40.993159 ] } },
{ "type": "Feature", "properties": { "name": "Value Veterinary Clinic", "class": "service_vet", "icon": "vet" }, "geometry": { "type": "Point", "coordinates": [ -73.8543595, 40.8310409 ] } },
{ "type": "Feature", "properties": { "name": "Center For Veterinary Care", "class": "service_vet", "icon": "vet" }, "geometry": { "type": "Point", "coordinates": [ -73.95775, 40.77099 ] } },
{ "type": "Feature", "properties": { "name": "The Dog Train", "class": "service_vet", "icon": "vet" }, "geometry": { "type": "Point", "coordinates": [ -74.005386352539091, 40.744106292724602 ] } },
{ "type": "Feature", "properties": { "name": "Island Bird Cat & Dog Vet Group", "class": "service_vet", "icon": "vet" }, "geometry": { "type": "Point", "coordinates": [ -74.123130193121696, 40.618475984945299 ] } },
{ "type": "Feature", "properties": { "name": "Gonzo Dog", "class": "service_vet", "icon": "vet" }, "geometry": { "type": "Point", "coordinates": [ -73.96344, 40.67778 ] } },
{ "type": "Feature", "properties": { "name": "Ruff Club", "class": "service_vet", "icon": "vet" }, "geometry": { "type": "Point", "coordinates": [ -73.985176, 40.723331 ] } },
{ "type": "Feature", "properties": { "name": "Full Pet Services", "class": "service_vet", "icon": "vet" }, "geometry": { "type": "Point", "coordinates": [ -73.947428, 40.592804 ] } },
{ "type": "Feature", "properties": { "name": "Downtown Doghouse", "class": "service_vet", "icon": "vet" }, "geometry": { "type": "Point", "coordinates": [ -74.0025283, 40.7449113 ] } },
{ "type": "Feature", "properties": { "name": "Astoria Animal Hospital", "class": "service_vet", "icon": "vet" }, "geometry": { "type": "Point", "coordinates": [ -73.91687, 40.76195 ] } },
{ "type": "Feature", "properties": { "name": "Dapper Dog Training", "class": "service_vet", "icon": "vet" }, "geometry": { "type": "Point", "coordinates": [ -74.0050428013421, 40.735120375415704 ] } },
{ "type": "Feature", "properties": { "name": "Petchester Veterinary", "class": "service_vet", "icon": "vet" }, "geometry": { "type": "Point", "coordinates": [ -73.81771, 40.950375 ] } },
{ "type": "Feature", "properties": { "name": "Fisch Jeffrey DVM", "class": "service_vet", "icon": "vet" }, "geometry": { "type": "Point", "coordinates": [ -73.98707, 40.7644499 ] } },
{ "type": "Feature", "properties": { "name": "Paws & Rec", "class": "service_vet", "icon": "vet" }, "geometry": { "type": "Point", "coordinates": [ -73.99052, 40.69347 ] } },
{ "type": "Feature", "properties": { "name": "University Animal Hospital", "class": "service_vet", "icon": "vet" }, "geometry": { "type": "Point", "coordinates": [ -73.959138681159502, 40.764060967350801 ] } },
{ "type": "Feature", "properties": { "name": "Animal Heath Center", "class": "service_vet", "icon": "vet" }, "geometry": { "type": "Point", "coordinates": [ -73.94835, 40.77778 ] } },
{ "type": "Feature", "properties": { "name": "ASPCA Adoption Center", "class": "service_vet", "icon": "vet" }, "geometry": { "type": "Point", "coordinates": [ -73.9456787109375, 40.780059814453104 ] } },
{ "type": "Feature", "properties": { "name": "Luckow Scott DVM", "class": "service_vet", "icon": "vet" }, "geometry": { "type": "Point", "coordinates": [ -73.9031953, 40.880931 ] } },
{ "type": "Feature", "properties": { "name": "New Hyde Park Animal Hospital", "class": "service_vet", "icon": "vet" }, "geometry": { "type": "Point", "coordinates": [ -73.6880137, 40.7322064 ] } },
{ "type": "Feature", "properties": { "name": "Heights Veterinary Clinic", "class": "service_vet", "icon": "vet" }, "geometry": { "type": "Point", "coordinates": [ -73.9385359, 40.8507198 ] } },
{ "type": "Feature", "properties": { "name": "Animal Health Veterinary Group", "class": "service_vet", "icon": "vet" }, "geometry": { "type": "Point", "coordinates": [ -74.105097, 40.5745124 ] } },
{ "type": "Feature", "properties": { "name": "A Q L Dog & Cat Clinic", "class": "service_vet", "icon": "vet" }, "geometry": { "type": "Point", "coordinates": [ -74.14989, 40.55155 ] } },
{ "type": "Feature", "properties": { "name": "Barbara Eisner, DVM", "class": "service_vet", "icon": "vet" }, "geometry": { "type": "Point", "coordinates": [ -73.9620662, 40.715586 ] } },
{ "type": "Feature", "properties": { "name": "Staten Island Pet", "class": "service_vet", "icon": "vet" }, "geometry": { "type": "Point", "coordinates": [ -74.1640244, 40.6071434 ] } },
{ "type": "Feature", "properties": { "name": "My Two Dogs", "class": "service_vet", "icon": "vet" }, "geometry": { "type": "Point", "coordinates": [ -73.9435406, 40.7058242 ] } },
{ "type": "Feature", "properties": { "name": "Low Cost Vet Mobile", "class": "service_vet", "icon": "vet" }, "geometry": { "type": "Point", "coordinates": [ -73.93773370000001, 40.7928208 ] } },
{ "type": "Feature", "properties": { "name": "NYC Pet", "class": "service_vet", "icon": "vet" }, "geometry": { "type": "Point", "coordinates": [ -73.9640661046937, 40.718363288723602 ] } },
{ "type": "Feature", "properties": { "name": "ProiettoVets", "class": "service_vet", "icon": "vet" }, "geometry": { "type": "Point", "coordinates": [ -74.008888244628906, 40.720920562744105 ] } },
{ "type": "Feature", "properties": { "name": "Brooklyn Dog Walk", "class": "service_vet", "icon": "vet" }, "geometry": { "type": "Point", "coordinates": [ -73.9921165, 40.685279 ] } },
{ "type": "Feature", "properties": { "name": "Ciao Bow Wow", "class": "service_vet", "icon": "vet" }, "geometry": { "type": "Point", "coordinates": [ -74.00933, 40.70958 ] } },
{ "type": "Feature", "properties": { "name": "Animal Hospital of White Plains", "class": "service_vet", "icon": "vet" }, "geometry": { "type": "Point", "coordinates": [ -73.758331, 41.014095 ] } },
{ "type": "Feature", "properties": { "name": "Animal Care Centers of NYC", "class": "service_vet", "icon": "vet" }, "geometry": { "type": "Point", "coordinates": [ -73.9393, 40.79255 ] } },
{ "type": "Feature", "properties": { "name": "Roy J Appel, DVM", "class": "service_vet", "icon": "vet" }, "geometry": { "type": "Point", "coordinates": [ -74.028968, 40.618606 ] } },
{ "type": "Feature", "properties": { "name": "Patrice A Whittington, DVM", "class": "service_vet", "icon": "vet" }, "geometry": { "type": "Point", "coordinates": [ -73.971, 40.74587 ] } },
{ "type": "Feature", "properties": { "name": "Buster and Whiskers - Astoria", "class": "service_vet", "icon": "vet" }, "geometry": { "type": "Point", "coordinates": [ -73.920086, 40.764839 ] } },
{ "type": "Feature", "properties": { "name": "Dog Wash N' Go", "class": "service_vet", "icon": "vet" }, "geometry": { "type": "Point", "coordinates": [ -73.9777353, 40.6718167 ] } },
{ "type": "Feature", "properties": { "name": "Animal Medicine and Surgery", "class": "service_vet", "icon": "vet" }, "geometry": { "type": "Point", "coordinates": [ -73.896171569824205, 40.637794494628899 ] } },
{ "type": "Feature", "properties": { "name": "Annadale Veterinary Clinic", "class": "service_vet", "icon": "vet" }, "geometry": { "type": "Point", "coordinates": [ -74.1770751, 40.5400257 ] } },
{ "type": "Feature", "properties": { "name": "Raise the Woof Dog Training", "class": "service_vet", "icon": "vet" }, "geometry": { "type": "Point", "coordinates": [ -73.9800645, 40.7769059 ] } },
{ "type": "Feature", "properties": { "name": "RiversideBArk!", "class": "service_vet", "icon": "vet" }, "geometry": { "type": "Point", "coordinates": [ -73.977285156335498, 40.784717646905996 ] } },
{ "type": "Feature", "properties": { "name": "Instinct Dog Behavior & Training", "class": "service_vet", "icon": "vet" }, "geometry": { "type": "Point", "coordinates": [ -73.942703247070298, 40.795158386230504 ] } },
{ "type": "Feature", "properties": { "name": "Cavallaro Theresa A DVM", "class": "service_vet", "icon": "vet" }, "geometry": { "type": "Point", "coordinates": [ -74.0690944, 40.6183955 ] } },
{ "type": "Feature", "properties": { "name": "Babette Gladstein", "class": "service_vet", "icon": "vet" }, "geometry": { "type": "Point", "coordinates": [ -73.9566579, 40.7829638 ] } },
{ "type": "Feature", "properties": { "name": "Banfield Pet Hospital", "class": "service_vet", "icon": "vet" }, "geometry": { "type": "Point", "coordinates": [ -73.9913411, 40.689082 ] } },
{ "type": "Feature", "properties": { "name": "Northside Animal Hospital", "class": "service_vet", "icon": "vet" }, "geometry": { "type": "Point", "coordinates": [ -74.1272, 40.63135 ] } },
{ "type": "Feature", "properties": { "name": "Victoria L Coronato, DVM PC", "class": "service_vet", "icon": "vet" }, "geometry": { "type": "Point", "coordinates": [ -73.935745, 40.794986 ] } },
{ "type": "Feature", "properties": { "name": "Jo Ann Greenberg DVM", "class": "service_vet", "icon": "vet" }, "geometry": { "type": "Point", "coordinates": [ -73.997337, 40.691295 ] } },
{ "type": "Feature", "properties": { "name": "Vinitsky Leah", "class": "service_vet", "icon": "vet" }, "geometry": { "type": "Point", "coordinates": [ -73.985429900000014, 40.67 ] } },
{ "type": "Feature", "properties": { "name": "PetPremium", "class": "service_vet", "icon": "vet" }, "geometry": { "type": "Point", "coordinates": [ -74.0094276, 40.7068089 ] } },
{ "type": "Feature", "properties": { "name": "Manor Veterinary Clinic", "class": "service_vet", "icon": "vet" }, "geometry": { "type": "Point", "coordinates": [ -73.80722, 40.91565 ] } },
{ "type": "Feature", "properties": { "name": "Scandaglia Frank DVM", "class": "service_vet", "icon": "vet" }, "geometry": { "type": "Point", "coordinates": [ -74.123155, 40.618628 ] } },
{ "type": "Feature", "properties": { "name": "Walk This Way Canine Behavior Therapy", "class": "service_vet", "icon": "vet" }, "geometry": { "type": "Point", "coordinates": [ -73.9819, 40.66889 ] } },
{ "type": "Feature", "properties": { "name": "Paws In Chelsea", "class": "service_vet", "icon": "vet" }, "geometry": { "type": "Point", "coordinates": [ -73.994097373016402, 40.744450729989794 ] } },
{ "type": "Feature", "properties": { "name": "Empire of the Dog", "class": "service_vet", "icon": "vet" }, "geometry": { "type": "Point", "coordinates": [ -73.953811, 40.711837 ] } },
{ "type": "Feature", "properties": { "name": "Matthew Nebel, DVM - Veterinary House Calls", "class": "service_vet", "icon": "vet" }, "geometry": { "type": "Point", "coordinates": [ -73.9511, 40.78084 ] } },
{ "type": "Feature", "properties": { "name": "Howard B Levy, DVM", "class": "service_vet", "icon": "vet" }, "geometry": { "type": "Point", "coordinates": [ -73.656890869140597, 41.008949279785206 ] } },
{ "type": "Feature", "properties": { "name": "Nicole V Coates", "class": "service_vet", "icon": "vet" }, "geometry": { "type": "Point", "coordinates": [ -73.9456787109375, 40.780059814453104 ] } },
{ "type": "Feature", "properties": { "name": "Village Animal Hospital", "class": "service_vet", "icon": "vet" }, "geometry": { "type": "Point", "coordinates": [ -73.748393, 40.935337 ] } },
{ "type": "Feature", "properties": { "name": "Veterinarian On Wheels", "class": "service_vet", "icon": "vet" }, "geometry": { "type": "Point", "coordinates": [ -73.698486207409701, 40.825298883459396 ] } },
{ "type": "Feature", "properties": { "name": "Lauren's Leash", "class": "service_vet", "icon": "vet" }, "geometry": { "type": "Point", "coordinates": [ -73.9659, 40.7568 ] } },
{ "type": "Feature", "properties": { "name": "The Cat Doctor", "class": "service_vet", "icon": "vet" }, "geometry": { "type": "Point", "coordinates": [ -73.67169, 40.75193 ] } },
{ "type": "Feature", "properties": { "name": "Kitty Pride Cat Grooming", "class": "service_vet", "icon": "vet" }, "geometry": { "type": "Point", "coordinates": [ -73.95241, 40.72997 ] } },
{ "type": "Feature", "properties": { "name": "Lee Lincoln Dr Vet", "class": "service_vet", "icon": "vet" }, "geometry": { "type": "Point", "coordinates": [ -73.8565063, 40.870079 ] } },
{ "type": "Feature", "properties": { "name": "New Rochelle Animal Hospital", "class": "service_vet", "icon": "vet" }, "geometry": { "type": "Point", "coordinates": [ -73.778366, 40.906629 ] } },
{ "type": "Feature", "properties": { "name": "Quality Veterinary Care", "class": "service_vet", "icon": "vet" }, "geometry": { "type": "Point", "coordinates": [ -73.690321360617403, 40.703701977403298 ] } },
{ "type": "Feature", "properties": { "name": "Wendy's Pet Care", "class": "service_vet", "icon": "vet" }, "geometry": { "type": "Point", "coordinates": [ -73.9701798, 40.7521195 ] } },
{ "type": "Feature", "properties": { "name": "Garden City Park Animal Hospital", "class": "service_vet", "icon": "vet" }, "geometry": { "type": "Point", "coordinates": [ -73.67182, 40.746781 ] } },
{ "type": "Feature", "properties": { "name": "Animal Care Centers of NYC", "class": "service_vet", "icon": "vet" }, "geometry": { "type": "Point", "coordinates": [ -73.876925, 40.6641117 ] } },
{ "type": "Feature", "properties": { "name": "PetSmart", "class": "service_vet", "icon": "vet" }, "geometry": { "type": "Point", "coordinates": [ -73.990956, 40.6890732 ] } },
{ "type": "Feature", "properties": { "name": "Bark Support", "class": "service_vet", "icon": "vet" }, "geometry": { "type": "Point", "coordinates": [ -73.961822509765597, 40.692825317382798 ] } },
{ "type": "Feature", "properties": { "name": "Natural Vet for Pets", "class": "service_vet", "icon": "vet" }, "geometry": { "type": "Point", "coordinates": [ -73.88232, 40.99624 ] } },
{ "type": "Feature", "properties": { "name": "Animal Endocrine Clinic", "class": "service_vet", "icon": "vet" }, "geometry": { "type": "Point", "coordinates": [ -73.963653, 40.794826 ] } },
{ "type": "Feature", "properties": { "name": "Best Pet RX", "class": "service_vet", "icon": "vet" }, "geometry": { "type": "Point", "coordinates": [ -73.949279019200503, 40.783585237118103 ] } },
{ "type": "Feature", "properties": { "name": "Wild Bird Fund", "class": "service_vet", "icon": "vet" }, "geometry": { "type": "Point", "coordinates": [ -73.971477001905399, 40.787352696061099 ] } },
{ "type": "Feature", "properties": { "name": "Canine Car Pet Taxi", "class": "service_vet", "icon": "vet" }, "geometry": { "type": "Point", "coordinates": [ -73.96775, 40.75866 ] } },
{ "type": "Feature", "properties": { "name": "Suchanek Jan, DVM", "class": "service_vet", "icon": "vet" }, "geometry": { "type": "Point", "coordinates": [ -73.97671, 40.74406 ] } },
{ "type": "Feature", "properties": { "name": "Banfield Pet Hospital", "class": "service_vet", "icon": "vet" }, "geometry": { "type": "Point", "coordinates": [ -74.1384599, 40.626198 ] } },
{ "type": "Feature", "properties": { "name": "Visiting Vet Of New York", "class": "service_vet", "icon": "vet" }, "geometry": { "type": "Point", "coordinates": [ -73.979743957519503, 40.779285430908203 ] } },
{ "type": "Feature", "properties": { "name": "Burchman Albert Dr Vet", "class": "service_vet", "icon": "vet" }, "geometry": { "type": "Point", "coordinates": [ -73.89689, 40.86712 ] } },
{ "type": "Feature", "properties": { "name": "NYC Doggies", "class": "service_vet", "icon": "vet" }, "geometry": { "type": "Point", "coordinates": [ -73.98095703125, 40.739341735839794 ] } },
{ "type": "Feature", "properties": { "name": "The Wagging Tail", "class": "service_vet", "icon": "vet" }, "geometry": { "type": "Point", "coordinates": [ -74.0057, 40.71694 ] } },
{ "type": "Feature", "properties": { "name": "Andrea Arden Dog Training", "class": "service_vet", "icon": "vet" }, "geometry": { "type": "Point", "coordinates": [ -73.990654, 40.7434449 ] } },
{ "type": "Feature", "properties": { "name": "Maddon Eric B DVM", "class": "service_vet", "icon": "vet" }, "geometry": { "type": "Point", "coordinates": [ -73.985429900000014, 40.67001 ] } },
{ "type": "Feature", "properties": { "name": "Catnip & Carrots Veterinary Hospital", "class": "service_vet", "icon": "vet" }, "geometry": { "type": "Point", "coordinates": [ -73.67256, 40.73597 ] } },
{ "type": "Feature", "properties": { "name": "Gotham Dog Training", "class": "service_vet", "icon": "vet" }, "geometry": { "type": "Point", "coordinates": [ -73.957062, 40.646181 ] } },
{ "type": "Feature", "properties": { "name": "Beverlie Animal Hospital", "class": "service_vet", "icon": "vet" }, "geometry": { "type": "Point", "coordinates": [ -73.83692, 40.9254 ] } },
{ "type": "Feature", "properties": { "name": "Healthy Paws Pet Insurance & Foundation", "class": "service_vet", "icon": "vet" }, "geometry": { "type": "Point", "coordinates": [ -73.99, 40.75 ] } },
{ "type": "Feature", "properties": { "name": "Mollywood Paws", "class": "service_vet", "icon": "vet" }, "geometry": { "type": "Point", "coordinates": [ -73.9819, 40.66889 ] } },
{ "type": "Feature", "properties": { "name": "American Kennels", "class": "service_vet", "icon": "vet" }, "geometry": { "type": "Point", "coordinates": [ -73.967045, 40.7639786 ] } },
{ "type": "Feature", "properties": { "name": "Pet I Care", "class": "service_vet", "icon": "vet" }, "geometry": { "type": "Point", "coordinates": [ -73.98553, 40.74002 ] } },
{ "type": "Feature", "properties": { "name": "Paws In Paradise", "class": "service_vet", "icon": "vet" }, "geometry": { "type": "Point", "coordinates": [ -73.9856138, 40.6702224 ] } },
{ "type": "Feature", "properties": { "name": "Tranquil Paws Veterinary -Acupuncture, Herbal, Laser", "class": "service_vet", "icon": "vet" }, "geometry": { "type": "Point", "coordinates": [ -73.9535288, 40.7817387 ] } },
{ "type": "Feature", "properties": { "name": "Victory Veterinary Practice", "class": "service_vet", "icon": "vet" }, "geometry": { "type": "Point", "coordinates": [ -74.19583, 40.5883899 ] } },
{ "type": "Feature", "properties": { "name": "Bird Camp", "class": "service_vet", "icon": "vet" }, "geometry": { "type": "Point", "coordinates": [ -73.96607, 40.75605 ] } },
{ "type": "Feature", "properties": { "name": "Nyc Mobile Vet", "class": "service_vet", "icon": "vet" }, "geometry": { "type": "Point", "coordinates": [ -73.968299865722699, 40.759113311767599 ] } },
{ "type": "Feature", "properties": { "name": "Lickers n Sniffers", "class": "service_vet", "icon": "vet" }, "geometry": { "type": "Point", "coordinates": [ -73.989385105669498, 40.680202733734205 ] } },
{ "type": "Feature", "properties": { "name": "Meadow Veterinary Hospital", "class": "service_vet", "icon": "vet" }, "geometry": { "type": "Point", "coordinates": [ -73.746147155761705, 40.989067077636705 ] } },
{ "type": "Feature", "properties": { "name": "Amy Attas, VMD", "class": "service_vet", "icon": "vet" }, "geometry": { "type": "Point", "coordinates": [ -73.95826, 40.77043 ] } },
{ "type": "Feature", "properties": { "name": "Astoria Pets", "class": "service_vet", "icon": "vet" }, "geometry": { "type": "Point", "coordinates": [ -73.91842, 40.76007 ] } },
{ "type": "Feature", "properties": { "name": "Brooklyn Animal Action", "class": "service_vet", "icon": "vet" }, "geometry": { "type": "Point", "coordinates": [ -73.9819, 40.66889 ] } },
{ "type": "Feature", "properties": { "name": "Peter Astarbi, DVM", "class": "service_vet", "icon": "vet" }, "geometry": { "type": "Point", "coordinates": [ -74.199363708496094, 40.548320770263707 ] } },
{ "type": "Feature", "properties": { "name": "Port Washington Animal Hospital", "class": "service_vet", "icon": "vet" }, "geometry": { "type": "Point", "coordinates": [ -73.683947, 40.825178 ] } },
{ "type": "Feature", "properties": { "name": "Animal Clinic of Sunset Park", "class": "service_vet", "icon": "vet" }, "geometry": { "type": "Point", "coordinates": [ -73.976464, 40.65249 ] } },
{ "type": "Feature", "properties": { "name": "Shull Jason L", "class": "service_vet", "icon": "vet" }, "geometry": { "type": "Point", "coordinates": [ -74.23961, 40.52244 ] } },
{ "type": "Feature", "properties": { "name": "Tri Boro Animal Hospital", "class": "service_vet", "icon": "vet" }, "geometry": { "type": "Point", "coordinates": [ -73.856341838836698, 40.870121772291299 ] } },
{ "type": "Feature", "properties": { "name": "Sean Casey Animal Rescue", "class": "service_vet", "icon": "vet" }, "geometry": { "type": "Point", "coordinates": [ -73.978251539656796, 40.6482065480619 ] } },
{ "type": "Feature", "properties": { "name": "Biscuits & Bath", "class": "service_vet", "icon": "vet" }, "geometry": { "type": "Point", "coordinates": [ -73.9885602, 40.7778103 ] } },
{ "type": "Feature", "properties": { "name": "Great Neck Animal Hospital", "class": "service_vet", "icon": "vet" }, "geometry": { "type": "Point", "coordinates": [ -73.714933, 40.782291 ] } },
{ "type": "Feature", "properties": { "name": "Animal Specialty Center", "class": "service_vet", "icon": "vet" }, "geometry": { "type": "Point", "coordinates": [ -73.880473, 40.967625694972796 ] } },
{ "type": "Feature", "properties": { "name": "Stamen Animal Hospital", "class": "service_vet", "icon": "vet" }, "geometry": { "type": "Point", "coordinates": [ -73.79334, 40.9483 ] } },
{ "type": "Feature", "properties": { "name": "Buchalter Ira S", "class": "service_vet", "icon": "vet" }, "geometry": { "type": "Point", "coordinates": [ -73.828, 40.67777 ] } },
{ "type": "Feature", "properties": { "name": "Country Estate Kennels", "class": "service_vet", "icon": "vet" }, "geometry": { "type": "Point", "coordinates": [ -74.238777160644503, 40.524345397949205 ] } },
{ "type": "Feature", "properties": { "name": "Rye Harrison Veterinary Hospital", "class": "service_vet", "icon": "vet" }, "geometry": { "type": "Point", "coordinates": [ -73.6977142, 40.9789034 ] } },
{ "type": "Feature", "properties": { "name": "Canine Rehab of New York", "class": "service_vet", "icon": "vet" }, "geometry": { "type": "Point", "coordinates": [ -73.968292385122695, 40.7919879497423 ] } },
{ "type": "Feature", "properties": { "name": "The Center For Avian & Exotic Medicine", "class": "service_vet", "icon": "vet" }, "geometry": { "type": "Point", "coordinates": [ -73.97167, 40.78749 ] } },
{ "type": "Feature", "properties": { "name": "Wellness Mobile Veterinary Care", "class": "service_vet", "icon": "vet" }, "geometry": { "type": "Point", "coordinates": [ -73.992591857910199, 40.749279022216797 ] } },
{ "type": "Feature", "properties": { "name": "Zola Lawrence DVM", "class": "service_vet", "icon": "vet" }, "geometry": { "type": "Point", "coordinates": [ -73.9592, 40.76397 ] } },
{ "type": "Feature", "properties": { "name": "Mastrangelo Lynn", "class": "service_vet", "icon": "vet" }, "geometry": { "type": "Point", "coordinates": [ -74.11585, 40.5741299 ] } },
{ "type": "Feature", "properties": { "name": "Mobile Vet 2 U NYC - Dr Michael C Posner", "class": "service_vet", "icon": "vet" }, "geometry": { "type": "Point", "coordinates": [ -74.006996154785199, 40.745436237701604 ] } },
{ "type": "Feature", "properties": { "name": "Brown Allison DVM", "class": "service_vet", "icon": "vet" }, "geometry": { "type": "Point", "coordinates": [ -74.093177, 40.584545 ] } },
{ "type": "Feature", "properties": { "name": "Crawford Dog & Cat Hospital", "class": "service_vet", "icon": "vet" }, "geometry": { "type": "Point", "coordinates": [ -73.669417, 40.738291 ] } },
{ "type": "Feature", "properties": { "name": "Acupuncture For Your Dog", "class": "service_vet", "icon": "vet" }, "geometry": { "type": "Point", "coordinates": [ -73.9782696, 40.7450003 ] } },
{ "type": "Feature", "properties": { "name": "Unleashed", "class": "service_vet", "icon": "vet" }, "geometry": { "type": "Point", "coordinates": [ -73.980772, 40.77437 ] } },
{ "type": "Feature", "properties": { "name": "Petco", "class": "service_vet", "icon": "vet" }, "geometry": { "type": "Point", "coordinates": [ -73.955512, 40.779914 ] } },
{ "type": "Feature", "properties": { "name": "Groom N Go", "class": "service_vet", "icon": "vet" }, "geometry": { "type": "Point", "coordinates": [ -74.172686599195004, 40.621284795632896 ] } },
{ "type": "Feature", "properties": { "name": "Biscuits & Bath", "class": "service_vet", "icon": "vet" }, "geometry": { "type": "Point", "coordinates": [ -74.0091047, 40.7182735 ] } },
{ "type": "Feature", "properties": { "name": "Pets Best", "class": "service_vet", "icon": "vet" }, "geometry": { "type": "Point", "coordinates": [ -73.9748776, 40.7584878 ] } },
{ "type": "Feature", "properties": { "name": "MacCia John DVM", "class": "service_vet", "icon": "vet" }, "geometry": { "type": "Point", "coordinates": [ -74.23961, 40.52245 ] } },
{ "type": "Feature", "properties": { "name": "Pet Necessities", "class": "service_vet", "icon": "vet" }, "geometry": { "type": "Point", "coordinates": [ -73.957786560058594, 40.770862579345703 ] } },
{ "type": "Feature", "properties": { "name": "Zani's Furry Friends", "class": "service_vet", "icon": "vet" }, "geometry": { "type": "Point", "coordinates": [ -73.951991, 40.781842 ] } },
{ "type": "Feature", "properties": { "name": "Arnold Plotnick, DVM", "class": "service_vet", "icon": "vet" }, "geometry": { "type": "Point", "coordinates": [ -73.98157, 40.78186 ] } },
{ "type": "Feature", "properties": { "name": "A & A Veterinary Hospital", "class": "service_vet", "icon": "vet" }, "geometry": { "type": "Point", "coordinates": [ -73.68308, 40.6969 ] } },
{ "type": "Feature", "properties": { "name": "Mamaroneck Veterinary Hospital & Pet Resort", "class": "service_vet", "icon": "vet" }, "geometry": { "type": "Point", "coordinates": [ -73.73921, 40.94337 ] } },
{ "type": "Feature", "properties": { "name": "VIP Veterinary Hospital", "class": "service_vet", "icon": "vet" }, "geometry": { "type": "Point", "coordinates": [ -74.002695, 40.733655 ] } },
{ "type": "Feature", "properties": { "name": "Scarsdale Animal Hospital", "class": "service_vet", "icon": "vet" }, "geometry": { "type": "Point", "coordinates": [ -73.804504, 40.972885 ] } },
{ "type": "Feature", "properties": { "name": "A Cut Above Pet Stylists", "class": "service_vet", "icon": "vet" }, "geometry": { "type": "Point", "coordinates": [ -73.9815567, 40.7762883 ] } },
{ "type": "Feature", "properties": { "name": "Pelham Animal Hospital", "class": "service_vet", "icon": "vet" }, "geometry": { "type": "Point", "coordinates": [ -73.808845, 40.915332 ] } },
{ "type": "Feature", "properties": { "name": "Country Estate Kennels", "class": "service_vet", "icon": "vet" }, "geometry": { "type": "Point", "coordinates": [ -74.238777, 40.524345 ] } },
{ "type": "Feature", "properties": { "name": "PetCallVetNYC", "class": "service_vet", "icon": "vet" }, "geometry": { "type": "Point", "coordinates": [ -74.00302, 40.7194 ] } },
{ "type": "Feature", "properties": { "name": "Larchmont Animal Hospital", "class": "service_vet", "icon": "vet" }, "geometry": { "type": "Point", "coordinates": [ -73.76309, 40.92973 ] } },
{ "type": "Feature", "properties": { "name": "Companion Animal Hospital Of Washingtonville\/Blooming Grove", "class": "service_vet", "icon": "vet" }, "geometry": { "type": "Point", "coordinates": [ -74.1674, 41.42488 ] } },
{ "type": "Feature", "properties": { "name": "Manhasset Animal Hospital", "class": "service_vet", "icon": "vet" }, "geometry": { "type": "Point", "coordinates": [ -73.69823, 40.7933 ] } },
{ "type": "Feature", "properties": { "name": "Treats & Tips", "class": "service_vet", "icon": "vet" }, "geometry": { "type": "Point", "coordinates": [ -73.92375, 40.74169 ] } },
{ "type": "Feature", "properties": { "name": "Dionisio Rufino Dr", "class": "service_vet", "icon": "vet" }, "geometry": { "type": "Point", "coordinates": [ -74.1770751, 40.5400257 ] } },
{ "type": "Feature", "properties": { "name": "Franklin Square Veterinary Associates", "class": "service_vet", "icon": "vet" }, "geometry": { "type": "Point", "coordinates": [ -73.681505, 40.7082181 ] } },
{ "type": "Feature", "properties": { "name": "Social Tees Animal Rescue", "class": "service_vet", "icon": "vet" }, "geometry": { "type": "Point", "coordinates": [ -73.987709, 40.726497 ] } },
{ "type": "Feature", "properties": { "name": "KittyKind", "class": "service_vet", "icon": "vet" }, "geometry": { "type": "Point", "coordinates": [ -73.99009, 40.73722 ] } },
{ "type": "Feature", "properties": { "name": "Ronald Chaikin DVM", "class": "service_vet", "icon": "vet" }, "geometry": { "type": "Point", "coordinates": [ -73.896178, 40.63778 ] } },
{ "type": "Feature", "properties": { "name": "Tuckahoe Animal Hospital & Pet Center", "class": "service_vet", "icon": "vet" }, "geometry": { "type": "Point", "coordinates": [ -73.8278663233001, 40.950055802278207 ] } },
{ "type": "Feature", "properties": { "name": "Mateyak Karen Dr", "class": "service_vet", "icon": "vet" }, "geometry": { "type": "Point", "coordinates": [ -73.98233, 40.66578 ] } },
{ "type": "Feature", "properties": { "name": "Treats & Tips", "class": "service_vet", "icon": "vet" }, "geometry": { "type": "Point", "coordinates": [ -73.916614428162589, 40.754741728305795 ] } },
{ "type": "Feature", "properties": { "name": "Animal Hospital of Elmont", "class": "service_vet", "icon": "vet" }, "geometry": { "type": "Point", "coordinates": [ -73.72049, 40.69112 ] } },
{ "type": "Feature", "properties": { "name": "The Barking Meter", "class": "service_vet", "icon": "vet" }, "geometry": { "type": "Point", "coordinates": [ -73.990756, 40.7371567 ] } },
{ "type": "Feature", "properties": { "name": "County Animal Clinic", "class": "service_vet", "icon": "vet" }, "geometry": { "type": "Point", "coordinates": [ -73.84319, 40.952739 ] } },
{ "type": "Feature", "properties": { "name": "Petland Discounts", "class": "service_vet", "icon": "vet" }, "geometry": { "type": "Point", "coordinates": [ -74.112932, 40.565984 ] } },
{ "type": "Feature", "properties": { "name": "Hynes John G", "class": "service_vet", "icon": "vet" }, "geometry": { "type": "Point", "coordinates": [ -74.238829900000013, 40.52438 ] } },
{ "type": "Feature", "properties": { "name": "Joseph A Zuckerman, DVM -  Ardsley Veterinary Associates", "class": "service_vet", "icon": "vet" }, "geometry": { "type": "Point", "coordinates": [ -73.846477400000012, 41.013112 ] } },
{ "type": "Feature", "properties": { "name": "aspca mobile Spay\/Neuter Clinic", "class": "service_vet", "icon": "vet" }, "geometry": { "type": "Point", "coordinates": [ -73.876922599999986, 40.6641121 ] } },
{ "type": "Feature", "properties": { "name": "Pet Health Centers at North Shore Animal League America", "class": "service_vet", "icon": "vet" }, "geometry": { "type": "Point", "coordinates": [ -73.685033099999984, 40.8263246 ] } },
{ "type": "Feature", "properties": { "name": "Hunziker Jon A DVM", "class": "service_vet", "icon": "vet" }, "geometry": { "type": "Point", "coordinates": [ -74.029708, 40.618774 ] } },
{ "type": "Feature", "properties": { "name": "Biscuits & Bath", "class": "service_vet", "icon": "vet" }, "geometry": { "type": "Point", "coordinates": [ -73.95217, 40.77342 ] } },
{ "type": "Feature", "properties": { "name": "Hartsdale Veterinary Hospital", "class": "service_vet", "icon": "vet" }, "geometry": { "type": "Point", "coordinates": [ -73.7959400459047, 41.012312734395302 ] } },
{ "type": "Feature", "properties": { "name": "American Academy Of Pet Grooming", "class": "service_vet", "icon": "vet" }, "geometry": { "type": "Point", "coordinates": [ -73.982164, 40.740091 ] } },
{ "type": "Feature", "properties": { "name": "Cozy Cats NY", "class": "service_vet", "icon": "vet" }, "geometry": { "type": "Point", "coordinates": [ -73.98577, 40.61486 ] } },
{ "type": "Feature", "properties": { "name": "Hallinger Carol Dr DVM", "class": "service_vet", "icon": "vet" }, "geometry": { "type": "Point", "coordinates": [ -73.98233, 40.66578 ] } },
{ "type": "Feature", "properties": { "name": "Petco", "class": "service_vet", "icon": "vet" }, "geometry": { "type": "Point", "coordinates": [ -73.953453, 40.589972 ] } },
{ "type": "Feature", "properties": { "name": "Miller Clark Animal Hospital", "class": "service_vet", "icon": "vet" }, "geometry": { "type": "Point", "coordinates": [ -73.717297713491789, 40.958102443977104 ] } },
{ "type": "Feature", "properties": { "name": "Ruderman Irwin DVM", "class": "service_vet", "icon": "vet" }, "geometry": { "type": "Point", "coordinates": [ -74.14724, 40.60936 ] } },
{ "type": "Feature", "properties": { "name": "Bronx Zoo-Rama Pets", "class": "service_vet", "icon": "vet" }, "geometry": { "type": "Point", "coordinates": [ -73.8483264, 40.8429113 ] } },
{ "type": "Feature", "properties": { "name": "North Regent Animal Clinic of Port Chester", "class": "service_vet", "icon": "vet" }, "geometry": { "type": "Point", "coordinates": [ -73.673561, 41.005905 ] } },
{ "type": "Feature", "properties": { "name": "Ardsley Veterinary Associates", "class": "service_vet", "icon": "vet" }, "geometry": { "type": "Point", "coordinates": [ -73.8466463, 41.0128291 ] } },
{ "type": "Feature", "properties": { "name": "Thayer Dr Andrew Veterinarian", "class": "service_vet", "icon": "vet" }, "geometry": { "type": "Point", "coordinates": [ -73.7959751, 41.0123657 ] } },
{ "type": "Feature", "properties": { "name": "North Shore Animal League America Adoption Center", "class": "service_vet", "icon": "vet" }, "geometry": { "type": "Point", "coordinates": [ -73.685056, 40.826304 ] } },
{ "type": "Feature", "properties": { "name": "Banfield Pet Hospital", "class": "service_vet", "icon": "vet" }, "geometry": { "type": "Point", "coordinates": [ -73.686179956428091, 40.754171507557501 ] } },
{ "type": "Feature", "properties": { "name": "Tails of Love Animal Rescue", "class": "service_vet", "icon": "vet" }, "geometry": { "type": "Point", "coordinates": [ -74.13978, 40.62823 ] } },
{ "type": "Feature", "properties": { "name": "Popcorn Pawz", "class": "service_vet", "icon": "vet" }, "geometry": { "type": "Point", "coordinates": [ -73.90682, 40.886815 ] } },
{ "type": "Feature", "properties": { "name": "Central Park Puppies", "class": "service_vet", "icon": "vet" }, "geometry": { "type": "Point", "coordinates": [ -73.859713453967288, 40.923006281096704 ] } },
{ "type": "Feature", "properties": { "name": "ThePampered.Pet", "class": "service_vet", "icon": "vet" }, "geometry": { "type": "Point", "coordinates": [ -73.96395, 40.76468 ] } },
{ "type": "Feature", "properties": { "name": "Long Island Bird & Exotics Veterinary Clinic", "class": "service_vet", "icon": "vet" }, "geometry": { "type": "Point", "coordinates": [ -73.73253, 40.77938 ] } },
{ "type": "Feature", "properties": { "name": "Gibson Mark Dr", "class": "service_vet", "icon": "vet" }, "geometry": { "type": "Point", "coordinates": [ -73.98233, 40.66578 ] } },
{ "type": "Feature", "properties": { "name": "Jiao Robert DVM", "class": "service_vet", "icon": "vet" }, "geometry": { "type": "Point", "coordinates": [ -73.8378199, 40.92051 ] } },
{ "type": "Feature", "properties": { "name": "Port Chester Animal Hospital", "class": "service_vet", "icon": "vet" }, "geometry": { "type": "Point", "coordinates": [ -73.656890869140597, 41.008949279785206 ] } },
{ "type": "Feature", "properties": { "name": "Mobile Vet Squad", "class": "service_vet", "icon": "vet" }, "geometry": { "type": "Point", "coordinates": [ -73.795972400000011, 40.9474377 ] } },
{ "type": "Feature", "properties": { "name": "Christina's Pet Styles", "class": "service_vet", "icon": "vet" }, "geometry": { "type": "Point", "coordinates": [ -74.1179377, 40.573275 ] } },
{ "type": "Feature", "properties": { "name": "Dendtler Pamella DVM", "class": "service_vet", "icon": "vet" }, "geometry": { "type": "Point", "coordinates": [ -73.97763, 40.67546 ] } },
{ "type": "Feature", "properties": { "name": "Veterinary Clinic", "class": "service_vet", "icon": "vet" }, "geometry": { "type": "Point", "coordinates": [ -73.979766845703097, 40.605369567871101 ] } },
{ "type": "Feature", "properties": { "name": "Doctor Pat's Pet House Call Practice", "class": "service_vet", "icon": "vet" }, "geometry": { "type": "Point", "coordinates": [ -74.00757, 40.61843 ] } },
{ "type": "Feature", "properties": { "name": "Feline Veterinary Hospital", "class": "service_vet", "icon": "vet" }, "geometry": { "type": "Point", "coordinates": [ -73.680449900000013, 40.81882 ] } },
{ "type": "Feature", "properties": { "name": "Woofs 'n Whiskers", "class": "service_vet", "icon": "vet" }, "geometry": { "type": "Point", "coordinates": [ -74.004819, 40.679438 ] } },
{ "type": "Feature", "properties": { "name": "Kosovsky Jane DVM", "class": "service_vet", "icon": "vet" }, "geometry": { "type": "Point", "coordinates": [ -73.977455, 40.785968 ] } },
{ "type": "Feature", "properties": { "name": "Citipups Chelsea", "class": "service_vet", "icon": "vet" }, "geometry": { "type": "Point", "coordinates": [ -74.00129, 40.74201 ] } },
{ "type": "Feature", "properties": { "name": "Hudson Dog Company", "class": "service_vet", "icon": "vet" }, "geometry": { "type": "Point", "coordinates": [ -73.900516, 40.9345266 ] } },
{ "type": "Feature", "properties": { "name": "Paws and Play Pet Resort & Training Center", "class": "service_vet", "icon": "vet" }, "geometry": { "type": "Point", "coordinates": [ -73.820596099999989, 40.9524036 ] } },
{ "type": "Feature", "properties": { "name": "New Vet Hospital", "class": "service_vet", "icon": "vet" }, "geometry": { "type": "Point", "coordinates": [ -73.89501, 40.63903 ] } },
{ "type": "Feature", "properties": { "name": "Keschner Michael Dr", "class": "service_vet", "icon": "vet" }, "geometry": { "type": "Point", "coordinates": [ -73.98043, 40.6469499 ] } },
{ "type": "Feature", "properties": { "name": "Surgeon Thoulton W, DVM", "class": "service_vet", "icon": "vet" }, "geometry": { "type": "Point", "coordinates": [ -73.782035, 40.914489 ] } },
{ "type": "Feature", "properties": { "name": "PetSmart", "class": "service_vet", "icon": "vet" }, "geometry": { "type": "Point", "coordinates": [ -73.930702, 40.795643 ] } },
{ "type": "Feature", "properties": { "name": "A Cut Above Grooming Salon", "class": "service_vet", "icon": "vet" }, "geometry": { "type": "Point", "coordinates": [ -73.97328, 40.78451 ] } },
{ "type": "Feature", "properties": { "name": "Puppy Boutique", "class": "service_vet", "icon": "vet" }, "geometry": { "type": "Point", "coordinates": [ -74.001691, 40.612037 ] } },
{ "type": "Feature", "properties": { "name": "Toby Project Line", "class": "service_vet", "icon": "vet" }, "geometry": { "type": "Point", "coordinates": [ -73.98291, 40.77884 ] } },
{ "type": "Feature", "properties": { "name": "Tarasoff Sandy, DVM", "class": "service_vet", "icon": "vet" }, "geometry": { "type": "Point", "coordinates": [ -73.75843, 41.01507 ] } },
{ "type": "Feature", "properties": { "name": "Banfield Pet Hospital", "class": "service_vet", "icon": "vet" }, "geometry": { "type": "Point", "coordinates": [ -73.817739626399501, 40.8930209655664 ] } },
{ "type": "Feature", "properties": { "name": "Elise Lovisa, DVM - Ardsley Veterinary Associates", "class": "service_vet", "icon": "vet" }, "geometry": { "type": "Point", "coordinates": [ -73.846477400000012, 41.013112 ] } },
{ "type": "Feature", "properties": { "name": "Katz Russell Dr Vet", "class": "service_vet", "icon": "vet" }, "geometry": { "type": "Point", "coordinates": [ -73.808845, 40.915332 ] } },
{ "type": "Feature", "properties": { "name": "Viado Daniel DVM", "class": "service_vet", "icon": "vet" }, "geometry": { "type": "Point", "coordinates": [ -74.14724, 40.60936 ] } },
{ "type": "Feature", "properties": { "name": "Borzio Frank DVM", "class": "service_vet", "icon": "vet" }, "geometry": { "type": "Point", "coordinates": [ -74.1272, 40.63136 ] } },
{ "type": "Feature", "properties": { "name": "A1 Pet Grooming", "class": "service_vet", "icon": "vet" }, "geometry": { "type": "Point", "coordinates": [ -73.955146789550795, 40.7728881835938 ] } },
{ "type": "Feature", "properties": { "name": "Kolins David Dr Dvm", "class": "service_vet", "icon": "vet" }, "geometry": { "type": "Point", "coordinates": [ -73.68802, 40.73225 ] } },
{ "type": "Feature", "properties": { "name": "Thompson Jan Vet", "class": "service_vet", "icon": "vet" }, "geometry": { "type": "Point", "coordinates": [ -73.9385359, 40.8507198 ] } },
{ "type": "Feature", "properties": { "name": "Dan's Dog Walking and Pet Sitting", "class": "service_vet", "icon": "vet" }, "geometry": { "type": "Point", "coordinates": [ -73.7021057, 40.8417099 ] } },
{ "type": "Feature", "properties": { "name": "William Isomoto, DVM", "class": "service_vet", "icon": "vet" }, "geometry": { "type": "Point", "coordinates": [ -73.548114078124911, 40.792491932351204 ] } },
{ "type": "Feature", "properties": { "name": "City Dog Pack", "class": "service_vet", "icon": "vet" }, "geometry": { "type": "Point", "coordinates": [ -73.95201, 40.77602 ] } },
{ "type": "Feature", "properties": { "name": "Dog Training by Bob Maida", "class": "service_vet", "icon": "vet" }, "geometry": { "type": "Point", "coordinates": [ -73.85961, 40.92021 ] } },
{ "type": "Feature", "properties": { "name": "The Left Paw", "class": "service_vet", "icon": "vet" }, "geometry": { "type": "Point", "coordinates": [ -73.68983, 40.73186 ] } },
{ "type": "Feature", "properties": { "name": "Raiti Paul DVM", "class": "service_vet", "icon": "vet" }, "geometry": { "type": "Point", "coordinates": [ -73.83692, 40.9254 ] } },
{ "type": "Feature", "properties": { "name": "Luxury Pet Spa & Boutique", "class": "service_vet", "icon": "vet" }, "geometry": { "type": "Point", "coordinates": [ -73.683933599999989, 40.7329808 ] } },
{ "type": "Feature", "properties": { "name": "Couture Grooming", "class": "service_vet", "icon": "vet" }, "geometry": { "type": "Point", "coordinates": [ -73.899790975119998, 40.867774056997703 ] } },
{ "type": "Feature", "properties": { "name": "Petco", "class": "service_vet", "icon": "vet" }, "geometry": { "type": "Point", "coordinates": [ -73.989944, 40.7371159 ] } },
{ "type": "Feature", "properties": { "name": "Spock & Elvis", "class": "service_vet", "icon": "vet" }, "geometry": { "type": "Point", "coordinates": [ -73.72802, 40.78765 ] } },
{ "type": "Feature", "properties": { "name": "Bird Jungle", "class": "service_vet", "icon": "vet" }, "geometry": { "type": "Point", "coordinates": [ -73.80972, 41.00905 ] } },
{ "type": "Feature", "properties": { "name": "Animal Clinic of Northern Blvd", "class": "service_vet", "icon": "vet" }, "geometry": { "type": "Point", "coordinates": [ -73.862343, 40.758005 ] } },
{ "type": "Feature", "properties": { "name": "Kaplan Andrew J, DVM ACVIM Dip", "class": "service_vet", "icon": "vet" }, "geometry": { "type": "Point", "coordinates": [ -73.98291015625, 40.778835296630895 ] } },
{ "type": "Feature", "properties": { "name": "Manhattan Puppies & Kittens", "class": "service_vet", "icon": "vet" }, "geometry": { "type": "Point", "coordinates": [ -73.97199, 40.78705 ] } },
{ "type": "Feature", "properties": { "name": "Pause N Play", "class": "service_vet", "icon": "vet" }, "geometry": { "type": "Point", "coordinates": [ -73.944351196289091, 40.601150512695298 ] } },
{ "type": "Feature", "properties": { "name": "Luv My Pet", "class": "service_vet", "icon": "vet" }, "geometry": { "type": "Point", "coordinates": [ -73.92596, 40.61392 ] } },
{ "type": "Feature", "properties": { "name": "Petco", "class": "service_vet", "icon": "vet" }, "geometry": { "type": "Point", "coordinates": [ -73.7588459365235, 40.935441276838802 ] } },
{ "type": "Feature", "properties": { "name": "NYC Dog Walkers", "class": "service_vet", "icon": "vet" }, "geometry": { "type": "Point", "coordinates": [ -73.9658576, 40.7923943 ] } },
{ "type": "Feature", "properties": { "name": "Puppy Paradise", "class": "service_vet", "icon": "vet" }, "geometry": { "type": "Point", "coordinates": [ -73.933273, 40.618904 ] } },
{ "type": "Feature", "properties": { "name": "Cali's Way", "class": "service_vet", "icon": "vet" }, "geometry": { "type": "Point", "coordinates": [ -73.842437744140597, 41.009788513183601 ] } },
{ "type": "Feature", "properties": { "name": "PetSmart", "class": "service_vet", "icon": "vet" }, "geometry": { "type": "Point", "coordinates": [ -73.686146, 40.754185536483199 ] } },
{ "type": "Feature", "properties": { "name": "Pet Mend Animal Hospital", "class": "service_vet", "icon": "vet" }, "geometry": { "type": "Point", "coordinates": [ -73.7615, 40.93094 ] } },
{ "type": "Feature", "properties": { "name": "Patrick Hopper, DVM", "class": "service_vet", "icon": "vet" }, "geometry": { "type": "Point", "coordinates": [ -73.74845, 40.93538 ] } },
{ "type": "Feature", "properties": { "name": "Banfield Pet Hospital", "class": "service_vet", "icon": "vet" }, "geometry": { "type": "Point", "coordinates": [ -73.8272143, 40.9810249 ] } },
{ "type": "Feature", "properties": { "name": "Best Breeds Puppies and Kittens", "class": "service_vet", "icon": "vet" }, "geometry": { "type": "Point", "coordinates": [ -73.733591, 40.949739 ] } },
{ "type": "Feature", "properties": { "name": "Larry Berg's Professional Dog Training Experts", "class": "service_vet", "icon": "vet" }, "geometry": { "type": "Point", "coordinates": [ -73.728485107421903, 40.786651611328104 ] } },
{ "type": "Feature", "properties": { "name": "PetSmart", "class": "service_vet", "icon": "vet" }, "geometry": { "type": "Point", "coordinates": [ -73.817756, 40.89301 ] } },
{ "type": "Feature", "properties": { "name": "PetSmart", "class": "service_vet", "icon": "vet" }, "geometry": { "type": "Point", "coordinates": [ -73.827261, 40.980924 ] } },
{ "type": "Feature", "properties": { "name": "Cali's Way", "class": "service_vet", "icon": "vet" }, "geometry": { "type": "Point", "coordinates": [ -73.842437744140597, 41.009788513183601 ] } },
{ "type": "Feature", "properties": { "name": "Thorndike Ellsworth B Vet", "class": "service_vet", "icon": "vet" }, "geometry": { "type": "Point", "coordinates": [ -73.71737, 40.95811 ] } },
{ "type": "Feature", "properties": { "name": "Throgs Neck Animal Hospital", "class": "service_vet", "icon": "vet" }, "geometry": { "type": "Point", "coordinates": [ -73.820872099999988, 40.8250275 ] } }
]
}
